time,vehicle_id,location_x,location_y,location_z,velocity_x,velocity_y,velocity_z,acceleration_x,acceleration_y,acceleration_z,angular_velocity_x,angular_velocity_y,angular_velocity_z,rotation_roll,rotation_pitch,rotation_yaw,control_brake,control_throttle,control_steer
1,253,-1071.8995361328125,4.500009536743164,1.910372018814087,0.0017619942082092166,3.197511250618845e-05,-1.2764970064163208,-8.094357326626778e-05,-1.3409589882940054e-06,-9.787189483642578,0.0013333145761862397,-0.11927266418933868,-0.0008797782356850803,-0.00018310548330191523,0.01563430204987526,-0.00012207030522404239,0.0,0.0,0.0
1,252,-1073.9398193359375,4.500069618225098,2.028223991394043,-0.014083385467529297,-0.00025559577625244856,-1.5395711660385132,0.000641215592622757,1.052685547620058e-05,-9.784913063049316,0.02613234333693981,-0.5570660829544067,-0.004158365074545145,-0.00390625,0.08343758434057236,-0.0006103515042923391,0.0,1.0,0.0
2,253,-1071.89892578125,4.500019550323486,1.6288986206054688,0.001750814146362245,3.1791376386536285e-05,-2.645677328109741,-8.082715794444084e-05,-1.3289536582306027e-06,-9.773492813110352,0.0013283784501254559,-0.11903741210699081,-0.0008759797201491892,-0.0003662109375,0.032306794077157974,-0.00024414058134425431,0.0,0.0,0.0
2,252,-1073.9385986328125,4.5001349449157715,1.7747178077697754,-0.014006479643285275,-0.0002543310110922903,-2.712996244430542,0.0006468035280704498,1.0631629265844822e-05,-9.77318286895752,0.02614419348537922,-0.5565961599349976,-0.004143844824284315,-0.007049560081213713,0.15026415884494781,-0.0011291502742096782,0.0,1.0,0.0
3,253,-1071.8984375,4.5000319480896,1.0296298265457153,0.0017372468719258904,3.1568164558848366e-05,-4.305677890777588,-7.950002327561378e-05,-1.30821717903018e-06,-9.756898880004883,0.0013223715359345078,-0.1187516525387764,-0.0008713552379049361,-0.000579833984375,0.052530981600284576,-0.0003967284574173391,0.0,0.0,0.0
3,252,-1073.9366455078125,4.500231742858887,1.1306557655334473,-0.01389148086309433,-0.00025243923300877213,-4.470493793487549,0.0006404705345630646,1.0608346201479435e-05,-9.755611419677734,0.026161935180425644,-0.5558947920799255,-0.004122072830796242,-0.011779784224927425,0.25038787722587585,-0.00189208984375,0.0,1.0,0.0
4,253,-1071.8978271484375,4.500045299530029,0.0878085270524025,0.0017229552613571286,3.133244899800047e-05,-6.060249328613281,-7.980270311236382e-05,-1.3173121260479093e-06,-9.739303588867188,0.0013160257367417216,-0.11845170706510544,-0.0008664638735353947,-0.000823974609375,0.07386849075555801,-0.0005493164644576609,0.0,0.0,0.0
4,252,-1073.934814453125,4.500324726104736,0.23216094076633453,-0.013783412054181099,-0.0002506595919840038,-6.127449989318848,0.0006396323442459106,1.0538497008383274e-05,-9.739017486572266,0.026179086416959763,-0.5552423000335693,-0.0041015190072357655,-0.016204833984375,0.34482207894325256,-0.0026245114859193563,0.0,1.0,0.0
5,253,-1071.9027099609375,4.495896339416504,-0.15183906257152557,0.0039539276622235775,-0.040752433240413666,0.20013172924518585,-0.04481980577111244,-0.6256825923919678,1.7422795295715332,1.1345747709274292,1.6735068559646606,0.01617136411368847,-0.094970703125,-0.11944634467363358,-3.051757266803179e-05,0.0,0.0,0.0
5,252,-1073.92431640625,4.497610569000244,0.002268829382956028,-0.0346522182226181,-0.12894852459430695,0.18453346192836761,0.39797985553741455,2.6306822299957275,1.7748281955718994,4.571778297424316,-0.7495163083076477,-0.15636169910430908,-0.2179870456457138,0.9966269731521606,-0.006835937034338713,0.0,1.0,0.0
6,253,-1071.9046630859375,4.495882987976074,-0.13748396933078766,0.0017586747417226434,-0.01998397521674633,0.24966813623905182,-0.03055516816675663,-0.5143536925315857,0.301988422870636,0.43902069330215454,0.7532894611358643,0.013165737502276897,-0.1424865871667862,-0.1862524151802063,0.0002289165131514892,0.0,0.949999988079071,0.0029642856679856777
6,252,-1073.92431640625,4.499293804168701,0.01629207655787468,-0.019245695322752,-0.14052557945251465,0.22492793202400208,0.2671940326690674,-1.8247865438461304,0.32945573329925537,1.736417293548584,-0.4639756381511688,0.6594582796096802,-0.3568420112133026,1.024726390838623,0.00886379461735487,0.0,1.0,0.0
7,253,-1071.9052734375,4.495874404907227,-0.12012260407209396,4.638613972929306e-05,0.0018983515910804272,0.23832391202449799,-0.01913454569876194,0.8613694310188293,-0.4071533679962158,0.08936706930398941,0.029899274930357933,-0.009810284711420536,-0.1578063815832138,-0.20807486772537231,0.0002438840747345239,0.0,0.949999988079071,-0.0012423244770616293
7,252,-1073.924072265625,4.502784252166748,0.036784667521715164,-0.004710396286100149,-0.1228497251868248,0.207405224442482,0.16669133305549622,-1.5933215618133545,-0.4315599799156189,1.460504174232483,-0.20110252499580383,0.668418824672699,-0.5736998319625854,1.048659324645996,0.03214467316865921,0.0,1.0,0.0
8,253,-1071.9044189453125,4.495774269104004,-0.09947212040424347,-0.0012148349778726697,0.011335247196257114,0.17957639694213867,-0.008456327021121979,0.72611403465271,-0.6349995732307434,-0.2307458370923996,-0.5120721459388733,-0.010797081515192986,-0.1392822414636612,-0.1772160828113556,0.00012276673805899918,0.0,0.949999988079071,0.0012366356095299125
8,252,-1073.923583984375,4.5069580078125,0.054070014506578445,0.005537086166441441,-0.08733836561441422,0.16038553416728973,0.07229265570640564,1.9335709810256958,-0.5432844161987305,3.154695987701416,0.039771441370248795,0.04944394901394844,-0.7909240126609802,1.0546084642410278,0.05728372558951378,0.0,1.0,0.0
9,253,-1071.90234375,4.495725631713867,-0.0901208445429802,0.06253544241189957,0.013075411319732666,0.14353103935718536,2.7145638465881348,0.6565501689910889,-0.5422621965408325,-0.293862521648407,-0.6814953684806824,-0.01690383069217205,-0.11892697960138321,-0.14062675833702087,0.0007549760630354285,0.0,0.949999988079071,0.001322591328062117
9,252,-1073.92138671875,4.509618282318115,0.06325744837522507,0.1032421886920929,-0.09027028828859329,0.1141759529709816,3.111863851547241,-1.4169268608093262,-0.7576286792755127,0.9172274470329285,0.042908381670713425,0.5774689316749573,-0.9175413250923157,1.0496429204940796,0.08101444691419601,0.0,1.0,0.0
10,253,-1071.8828125,4.49567174911499,-0.08065688610076904,0.34818965196609497,0.011276314966380596,0.10412290692329407,3.6266417503356934,0.17734654247760773,-0.4517972469329834,-0.3429666757583618,-0.8083885312080383,0.031222013756632805,-0.089569091796875,-0.07906626909971237,0.0029605235904455185,0.0,0.949999988079071,0.0011734726140275598
10,252,-1073.9002685546875,4.512531757354736,0.07014980167150497,0.3942215144634247,-0.0693385899066925,0.0686304047703743,3.6343307495117188,-0.1583874225616455,-0.3940410912036896,1.3714704513549805,0.021173492074012756,0.29785147309303284,-1.0538939237594604,1.0483179092407227,0.09985796362161636,0.0,1.0,0.0
11,253,-1071.840087890625,4.495670795440674,-0.07402114570140839,0.6333785653114319,0.009716436266899109,0.07221727818250656,3.508460521697998,-0.01413058489561081,-0.3550820052623749,-0.3120284974575043,-0.7724198698997498,0.05681583285331726,-0.0627136081457138,-0.015285962261259556,0.007077439688146114,0.0,0.949999988079071,0.0011734726140275598
11,252,-1073.856201171875,4.514895439147949,0.07425682246685028,0.6793403625488281,-0.05516190081834793,0.046818140894174576,3.502601385116577,0.1538533717393875,-0.19984766840934753,1.2492644786834717,0.0835457593202591,0.20411524176597595,-1.16387939453125,1.0439807176589966,0.11581911146640778,0.0,1.0,0.0
12,253,-1071.7752685546875,4.4957098960876465,-0.06955139338970184,0.9082803130149841,0.008230230771005154,0.04831632599234581,3.3845841884613037,-0.018347054719924927,-0.25780871510505676,-0.24849490821361542,-0.6594305038452148,0.06535755842924118,-0.04052734375,0.0418144166469574,0.011991930194199085,0.0,0.949999988079071,0.0009692288585938513
12,252,-1073.789794921875,4.516783237457275,0.07654330879449844,0.9532815217971802,-0.0434810109436512,0.03491771221160889,3.3682703971862793,0.14014914631843567,-0.11727884411811829,1.0002721548080444,0.13801594078540802,0.154121533036232,-1.2524720430374146,1.0349239110946655,0.12826596200466156,0.0,1.0,0.0
13,253,-1071.6644287109375,4.495793342590332,-0.06609054654836655,1.2399699687957764,0.006280043628066778,0.0280340313911438,3.266572952270508,-0.01667332835495472,-0.16260147094726562,-0.17008176445960999,-0.4878545105457306,0.07308848947286606,-0.02005005069077015,0.09838204085826874,0.01895824819803238,0.0,0.949999988079071,0.0007622615084983408
13,252,-1073.6898193359375,4.518386363983154,0.07780460268259048,1.25032639503479,-0.03155020251870155,0.026710718870162964,3.251183032989502,0.12671314179897308,-0.0754237174987793,0.7495704293251038,0.16662579774856567,0.10138188302516937,-1.3297728300094604,1.0209834575653076,0.13806721568107605,0.0,1.0,0.0
14,253,-1071.611083984375,4.495835304260254,-0.06517142802476883,1.3696508407592773,0.0054887221194803715,0.022302286699414253,3.2277822494506836,-0.01999526284635067,-0.13299696147441864,-0.1431885063648224,-0.4206621050834656,0.07442691922187805,-0.013916014693677425,0.11620200425386429,0.02195231430232525,0.0,0.949999988079071,0.0005569684435613453
14,252,-1073.609130859375,4.519183158874512,0.07820434123277664,1.4059834480285645,-0.024560309946537018,0.02927934192121029,0.20505189895629883,0.09746365249156952,0.4596015512943268,0.6080111265182495,0.22526197135448456,0.0741361528635025,-1.3695069551467896,1.0103079080581665,0.14234678447246552,0.0,1.0,0.0
15,253,-1071.5128173828125,4.495923042297363,-0.06412414461374283,1.3943456411361694,0.004340190440416336,0.01155273150652647,-0.016939640045166016,-0.0166148878633976,-0.1266665756702423,-0.09727367758750916,-0.22698259353637695,0.022444654256105423,-0.005767822265625,0.1377580761909485,0.024974698200821877,0.0,0.949999988079071,0.0005569684435613453
15,252,-1073.539306640625,4.519789695739746,0.07838733494281769,1.4069194793701172,-0.01985182985663414,0.04075699672102928,-0.0023365020751953125,0.0939471647143364,0.12800022959709167,0.49794596433639526,0.34371572732925415,0.06930828839540482,-1.396728515625,0.9950150847434998,0.1455022245645523,0.0,1.0,0.0
16,253,-1071.4134521484375,4.496020317077637,-0.06359725445508957,1.4802285432815552,0.0033463062718510628,0.006833481136709452,3.28599214553833,-0.007892842404544353,-0.012363959103822708,-0.06231999769806862,-0.1502630114555359,0.04957788437604904,-0.00045776370097883046,0.14923962950706482,0.026853015646338463,0.0,0.949999988079071,0.0005922956624999642
16,252,-1073.44091796875,4.52044153213501,0.07850971072912216,1.4894001483917236,-0.012700487859547138,0.029489628970623016,3.1825661659240723,0.11499542742967606,-0.4227831959724426,0.33932197093963623,0.2571749687194824,0.031840935349464417,-1.4254150390625,0.9716967940330505,0.14868947863578796,0.0,1.0,0.0
17,253,-1071.300537109375,4.496119499206543,-0.06318832188844681,1.7054401636123657,0.002936993958428502,0.00584266846999526,3.1599879264831543,-0.0035611214116215706,-0.01584785059094429,-0.03974956274032593,-0.13952627778053284,0.07923445105552673,0.0029676908161491156,0.15951906144618988,0.03177037462592125,0.0,0.949999988079071,0.0005922956624999642
17,252,-1073.3109130859375,4.520790100097656,0.07856124639511108,1.7411924600601196,-0.004505516961216927,0.011235358193516731,3.1043529510498047,0.0936816930770874,-0.12356061488389969,0.18608123064041138,0.09857036173343658,-0.013618331402540207,-1.445556640625,0.9595254063606262,0.14865082502365112,0.0,1.0,0.0
18,253,-1071.1915283203125,4.496204376220703,-0.06289634853601456,1.8912614583969116,0.0024102714378386736,0.004815069958567619,3.053593635559082,-0.004219473339617252,-0.017409073188900948,-0.028304623439908028,-0.11332686245441437,0.07955694198608398,0.004940169397741556,0.1670117825269699,0.03661879152059555,0.0,0.949999988079071,0.0002689162502065301
18,252,-1073.219482421875,4.520867824554443,0.07858329266309738,1.8942612409591675,-0.00012021582369925454,0.007273790892213583,3.032529354095459,0.08473604917526245,-0.05489695072174072,0.10000328719615936,0.062164057046175,-0.033339764922857285,-1.452239990234375,0.9558097720146179,0.1472495198249817,0.0,1.0,0.0
19,253,-1071.050537109375,4.49630069732666,-0.06263015419244766,2.100517988204956,0.002135633723810315,0.0035781129263341427,2.9433488845825195,-0.0014659017324447632,-0.017071444541215897,-0.017077429220080376,-0.07910804450511932,0.07764393091201782,0.006448656786233187,0.17357559502124786,0.042146578431129456,0.0,0.949999988079071,0.00011291200644336641
19,252,-1073.0787353515625,4.520844459533691,0.07861576229333878,2.1025094985961914,0.005352355539798737,0.005240679252892733,2.932572364807129,0.07407865673303604,-0.015608174726366997,-0.00796341523528099,0.04170658811926842,-0.0547071248292923,-1.4548646211624146,0.9524083733558655,0.14399662613868713,0.0,1.0,0.0
20,253,-1070.895263671875,4.496405601501465,-0.062437742948532104,2.30265212059021,0.0020117831882089376,0.0024901190772652626,2.847909927368164,-0.0013315817341208458,-0.014095054939389229,-0.009112714789807796,-0.04831051081418991,0.07570446282625198,0.007293460890650749,0.17784444987773895,0.04754924774169922,0.0,0.949999988079071,-2.1494191969395615e-05
20,252,-1072.9002685546875,4.520664691925049,0.07865890115499496,2.33237624168396,0.01078247744590044,0.0047502899542450905,2.829313278198242,0.06362469494342804,-0.002155965194106102,-0.11578889191150665,0.03465704619884491,-0.07448814809322357,-1.449249267578125,0.9494304060935974,0.13880380988121033,0.0,1.0,0.0
21,253,-1070.7510986328125,4.496502876281738,-0.06232253834605217,2.47101092338562,0.0020021714735776186,0.001722422894090414,2.777433395385742,-0.0013097887858748436,-0.011941278353333473,-0.0042169480584561825,-0.026791078969836235,0.07386383414268494,0.007651117164641619,0.17996181547641754,0.05204540491104126,0.0,0.949999988079071,-0.00011192191595910117
21,252,-1072.7545166015625,4.520441055297852,0.07869430631399155,2.4997458457946777,0.014334820210933685,0.004731981083750725,2.7622461318969727,0.0563804991543293,0.000422867015004158,-0.18666397035121918,0.03285389021039009,-0.0866468995809555,-1.439789056777954,0.9474018216133118,0.134059339761734,0.0,1.0,0.0
22,253,-1070.5435791015625,4.496649742126465,-0.062224652618169785,2.68953537940979,0.0022172126919031143,0.0009502458851784468,2.698206901550293,0.003925268538296223,-0.007883448153734207,0.0007719114073552191,-0.005643300246447325,0.07351545989513397,0.007755075115710497,0.181102454662323,0.05790780857205391,0.0,0.949999988079071,-0.00011192191595910117
22,252,-1072.572021484375,4.520103931427002,0.0787367969751358,2.6903488636016846,0.017957735806703568,0.004738010931760073,2.695012092590332,0.048351846635341644,-9.941868484020233e-05,-0.25861090421676636,0.03153783828020096,-0.09793145209550858,-1.4237977266311646,0.9451137185096741,0.1277896910905838,0.0,1.0,0.0
23,253,-1070.3765869140625,4.49677038192749,-0.0621824637055397,2.849654197692871,0.002261608839035034,0.0005462967092171311,2.6485681533813477,0.003755255602300167,-0.005672994069755077,0.002043940592557192,0.005039085168391466,0.07047241181135178,0.007679884321987629,0.18104781210422516,0.06218148022890091,0.0,0.949999988079071,-0.000223568596993573
23,252,-1072.405029296875,4.5197601318359375,0.07877235114574432,2.8503005504608154,0.020622529089450836,0.004688129760324955,2.6462316513061523,0.04182029515504837,-0.00047939829528331757,-0.31218743324279785,0.030256642028689384,-0.10616648942232132,-1.4063720703125,0.9432286024093628,0.12189572304487228,0.0,1.0,0.0
24,253,-1070.169677734375,4.496907711029053,-0.062156371772289276,3.033048391342163,0.002169206505641341,0.00021411129273474216,2.599668502807617,0.0034111319109797478,-0.0038140248507261276,0.0022224339190870523,0.012877363711595535,0.0626559779047966,0.007574482820928097,0.1803511381149292,0.06672297418117523,0.0,0.949999988079071,-0.0004136323696002364
24,252,-1072.1676025390625,4.519235610961914,0.07881778478622437,3.0594608783721924,0.02358470857143402,0.004500857088714838,2.591419219970703,0.03359261900186539,-0.0038506928831338882,-0.3723560869693756,0.02809995785355568,-0.1145409345626831,-1.3785706758499146,0.9408448338508606,0.11343774944543839,0.0,1.0,0.0
25,253,-1069.917724609375,4.497082233428955,-0.062146756798028946,3.2388908863067627,0.0024139443412423134,-2.1119569282745942e-05,2.553677558898926,0.004507973790168762,-0.0024910306092351675,0.003509501926600933,0.017235390841960907,0.05966760218143463,0.007340321782976389,0.17910121381282806,0.07157231867313385,0.0,0.949999988079071,-0.00046265992568805814
25,252,-1071.9462890625,4.518737316131592,0.07885249704122543,3.2392709255218506,0.025656623765826225,0.004286662675440311,2.552342414855957,0.02679973840713501,-0.004364177584648132,-0.41519787907600403,0.026228684931993484,-0.11899527907371521,-1.3507386445999146,0.9388914108276367,0.10568293184041977,0.0,1.0,0.0
26,253,-1069.683837890625,4.49705171585083,-0.06215064972639084,3.41628098487854,-0.0014096505474299192,-0.00012648441770579666,2.520298957824707,-0.02079783007502556,-0.0015399848343804479,-0.014591864310204983,0.018709821626544,-0.016722869127988815,0.008095603436231613,0.1779264211654663,0.072636179625988,0.0,0.949999988079071,-0.0022217300720512867
26,252,-1071.7125244140625,4.518133640289307,0.07887721806764603,3.416531562805176,0.02716061845421791,0.0039216927252709866,2.5199174880981445,0.021466054022312164,-0.00264081172645092,-0.4498083293437958,0.02305111289024353,-0.13279688358306885,-1.3199158906936646,0.9370062947273254,0.09722563624382019,0.0,1.0,0.0
27,253,-1069.43798828125,4.4970269203186035,-0.06216422840952873,3.5672192573547363,0.0007175527280196548,-0.0007288042106665671,0.48007965087890625,0.01911432482302189,-0.04469715803861618,0.008528194390237331,0.03253908455371857,-0.004625806584954262,0.008166990242898464,0.17647841572761536,0.07175589352846146,0.0,0.949999988079071,-0.0009926229249686003
27,252,-1071.430908203125,4.517497539520264,0.07890525460243225,3.568687915802002,0.028256453573703766,0.011308696120977402,0.031948089599609375,-0.0013357028365135193,0.3444555103778839,-0.46908268332481384,0.08874177187681198,-0.11604254692792892,-1.282989263534546,0.9340624809265137,0.08772661536931992,0.0,1.0,0.0
28,253,-1069.153076171875,4.497142791748047,-0.06233962997794151,3.563485622406006,0.001152859185822308,-0.0033360139932483435,-0.04515647888183594,0.0021920655854046345,-0.018383609130978584,0.012327402830123901,0.09903216361999512,-0.047857239842414856,0.007272262591868639,0.17034490406513214,0.06896728277206421,0.0,0.949999988079071,-0.0009021267760545015
28,252,-1071.1461181640625,4.517025947570801,0.07892997562885284,3.5673251152038574,0.028192171826958656,0.02284996025264263,-0.035691261291503906,-0.0003980472683906555,0.04685446619987488,-0.48925891518592834,0.19131384789943695,-0.09497348219156265,-1.244537353515625,0.9210987687110901,0.08019203692674637,0.0,1.0,0.0
29,253,-1068.8994140625,4.497256278991699,-0.0625012218952179,3.6968417167663574,0.0012974621495231986,-0.0015612689312547445,2.421736717224121,0.003681913949549198,0.029220933094620705,0.010562523268163204,0.047697991132736206,-0.0014156964607536793,0.0064648790284991264,0.16508565843105316,0.067206971347332,0.0,0.949999988079071,-0.0008200145093724132
29,252,-1070.853515625,4.5164570808410645,0.07893836498260498,3.7453083992004395,0.028957489877939224,0.004843209870159626,2.36818790435791,0.005478039383888245,-0.13182316720485687,-0.5080467462539673,0.0338192917406559,-0.11530763655900955,-1.204193353652954,0.9136607050895691,0.07229337841272354,0.0,1.0,0.0
30,253,-1068.595458984375,4.497384548187256,-0.06254401803016663,3.8864169120788574,0.0014303707284852862,-5.332328146323562e-05,2.3376941680908203,-0.007898430339992046,0.012207644991576672,0.005571308080106974,0.00781822670251131,0.022557146847248077,0.005812813527882099,0.16328932344913483,0.06844444572925568,0.0,0.949999988079071,-0.0009479350410401821
30,252,-1070.6241455078125,4.515960216522217,0.07894302159547806,3.8860080242156982,0.029034029692411423,0.00040937415906228125,2.3301124572753906,-0.002056919038295746,-0.04414631053805351,-0.5084191560745239,-0.005123615264892578,-0.12044882029294968,-1.1736754179000854,0.9131416082382202,0.06564733386039734,0.0,1.0,0.0
31,253,-1068.3575439453125,4.497469902038574,-0.06252967566251755,4.0252909660339355,0.0014193649403750896,0.0004056817851960659,2.2994041442871094,0.002168607898056507,0.004924598149955273,0.002414555521681905,-0.005483674351125956,0.023050909861922264,0.005609604995697737,0.16333714127540588,0.06981699913740158,0.0,0.949999988079071,-0.0009479350410401821
31,252,-1070.345703125,4.515365123748779,0.07894580811262131,4.047652721405029,0.028757387772202492,-0.0009884174214676023,2.293682098388672,-0.005858764052391052,-0.009137991815805435,-0.5036464929580688,-0.016649171710014343,-0.11961933970451355,-1.1382750272750854,0.9140431880950928,0.057771358639001846,0.0,1.0,0.0
32,253,-1068.1112060546875,4.497554302215576,-0.06250099092721939,4.16211462020874,0.001444100751541555,0.0005526771419681609,2.2672176361083984,0.0009896233677864075,0.0010426330845803022,0.00041883555240929127,-0.011536232195794582,0.020544422790408134,0.005537542048841715,0.16390404105186462,0.07113365828990936,0.0,0.949999988079071,-0.0010124733671545982
32,252,-1070.139892578125,4.514947891235352,0.07894447445869446,4.161607265472412,0.028371240943670273,-0.0010372420074418187,2.2691726684570312,-0.008616223931312561,0.0023513566702604294,-0.49867433309555054,-0.01626429334282875,-0.11679526418447495,-1.113219976425171,0.9148696660995483,0.052271462976932526,0.0,1.0,0.0
33,253,-1067.8135986328125,4.497657299041748,-0.062466125935316086,4.319421291351318,0.0016033113934099674,0.0005032724584452808,2.232503890991211,0.002664059866219759,-0.0026876863557845354,-4.244886804372072e-05,-0.013383300974965096,0.018295682966709137,0.005534329451620579,0.16480562090873718,0.07247070968151093,0.0,0.949999988079071,-0.0010079849744215608
33,252,-1069.84228515625,4.514387130737305,0.07893550395965576,4.319076061248779,0.027639398351311684,-0.0006840097485110164,2.234935760498047,-0.01173354685306549,0.005524279549717903,-0.4879858195781708,-0.011791827157139778,-0.11094070971012115,-1.078704833984375,0.9158121943473816,0.044872768223285675,0.0,1.0,0.0
34,253,-1067.4598388671875,4.497790336608887,-0.062434613704681396,4.496309280395508,0.0018148281378671527,0.00036689359694719315,2.194643020629883,0.002633151598274708,-0.002184024080634117,-8.565187454223633e-05,-0.011948208324611187,0.01681068167090416,0.005543486215174198,0.1658233255147934,0.0738636925816536,0.0,0.949999988079071,-0.0010053960140794516
34,252,-1069.4432373046875,4.51371431350708,0.07891444861888885,4.518050670623779,0.02641241066157818,-7.910058047855273e-05,2.1917343139648438,-0.015040114521980286,0.006126105319708586,-0.46929606795310974,-0.005268476903438568,-0.10223833471536636,-1.035674810409546,0.9164952039718628,0.03600570559501648,0.0,1.0,0.0
35,253,-1067.04541015625,4.497960567474365,-0.06241348013281822,4.691766738891602,0.0020558214746415615,0.00019040206097997725,2.153635025024414,0.0030628638342022896,-0.0018903941381722689,9.748725278768688e-05,-0.008378339000046253,0.015558267943561077,0.005547189619392157,0.16673174500465393,0.07530754804611206,0.0,0.949999988079071,-0.000996502349153161
35,252,-1069.0269775390625,4.5131025314331055,0.07888999581336975,4.713229179382324,0.024931373074650764,0.00042724929517135024,2.149820327758789,-0.017429329454898834,0.0021328043658286333,-0.4453743100166321,-3.308372833998874e-05,-0.0927114263176918,-0.9945985674858093,0.9166796207427979,0.027931390330195427,0.0,1.0,0.0
36,253,-1066.7593994140625,4.498086929321289,-0.06240691989660263,4.820056438446045,0.0022177468053996563,8.669233648106456e-05,2.1270751953125,0.0025758054107427597,-0.0017460661474615335,0.0002454441855661571,-0.005784518085420132,0.014914607629179955,0.005535873584449291,0.16714155673980713,0.07622002065181732,0.0,0.949999988079071,-0.000996502349153161
36,252,-1068.7879638671875,4.512791633605957,0.07887687534093857,4.820077419281006,0.024018757045269012,0.0006586934323422611,2.1282196044921875,-0.018691271543502808,0.004648254252970219,-0.430225133895874,0.002245477866381407,-0.08715678751468658,-0.9727781414985657,0.9165908694267273,0.023811277002096176,0.0,1.0,0.0
37,253,-1066.4161376953125,4.4980363845825195,-0.062405623495578766,4.967740535736084,-0.001410617958754301,-1.2279329894226976e-05,2.0969390869140625,-0.021501153707504272,-0.0012881513684988022,-0.015701813623309135,-0.0029498061630874872,-0.052284568548202515,0.006523836869746447,0.16743524372577667,0.07419468462467194,0.0,0.949999988079071,-0.0021648292895406485
37,252,-1068.394775390625,4.512237548828125,0.07885612547397614,4.988731384277344,0.0223330520093441,0.0009528068476356566,2.093219757080078,-0.019912421703338623,0.003189110429957509,-0.4045189321041107,0.0051014842465519905,-0.08921503275632858,-0.939178466796875,0.916269838809967,0.017106037586927414,0.0,1.0,0.0
38,253,-1066.0623779296875,4.498032569885254,-0.0622168704867363,5.1133713722229,0.000694146438036114,0.0027161668986082077,2.0635128021240234,0.012294278480112553,-0.04776846617460251,0.005308765452355146,-0.0011659779120236635,-0.028065655380487442,0.006639611907303333,0.1675581932067871,0.07134390622377396,0.0,0.949999988079071,-0.0012106106150895357
38,252,-1068.039794921875,4.511865615844727,0.0790562778711319,5.134233474731445,0.021089812740683556,0.0036145816557109356,2.064085006713867,-0.019940175116062164,-0.0676380917429924,-0.38177749514579773,0.007973231375217438,-0.07204540818929672,-0.9119569063186646,0.91527259349823,0.012135866098105907,0.0,1.0,0.0
39,253,-1065.6458740234375,4.49813175201416,-0.06211608648300171,5.277442455291748,0.0012561753392219543,0.0004413749265950173,2.034282684326172,0.0052696093916893005,-0.017924435436725616,0.00661333417519927,0.001579567906446755,-0.01133895292878151,0.006143788807094097,0.16754452884197235,0.0698656439781189,0.0,0.949999988079071,-0.0010940285865217447
39,252,-1067.6746826171875,4.511530876159668,0.07912898808717728,5.277476787567139,0.019609889015555382,0.001428011804819107,2.034473419189453,-0.022080354392528534,-0.014038453809916973,-0.3553341329097748,0.004475841298699379,-0.06630611419677734,-0.8862914443016052,0.914910614490509,0.007718147709965706,0.0,1.0,0.0
40,253,-1065.216552734375,4.498251438140869,-0.06212196126580238,5.438997268676758,0.0012855255044996738,-0.0003567081585060805,2.005338668823242,-0.002218259032815695,-0.005604422651231289,0.003047165460884571,0.003848868189379573,-0.006841081194579601,0.00575095834210515,0.16731230914592743,0.06927590817213058,0.0,0.949999988079071,-0.0011624291073530912
40,252,-1067.2452392578125,4.511180877685547,0.07912258058786392,5.439082622528076,0.0178031325340271,0.0009351980406790972,2.0062923431396484,-0.02268124371767044,-0.0004224013537168503,-0.3236418664455414,0.0067969984374940395,-0.06011326611042023,-0.8592528104782104,0.9144666790962219,0.003131307428702712,0.0,1.0,0.0
41,253,-1064.7742919921875,4.498358726501465,-0.062161482870578766,5.598123550415039,0.0012587092351168394,-0.0005752226570621133,1.9759654998779297,0.00010938383638858795,-0.0010769872460514307,0.0013962399680167437,0.005084238480776548,-0.008579823188483715,0.005596121307462454,0.1669434756040573,0.06864958256483078,0.0,0.949999988079071,-0.0011624291073530912
41,252,-1066.746826171875,4.510836601257324,0.07908531278371811,5.617992401123047,0.015755653381347656,0.0009594453731551766,1.9729137420654297,-0.022770091891288757,0.0015793310012668371,-0.28658559918403625,0.008979310281574726,-0.051268335431814194,-0.832000732421875,0.9137290120124817,-0.0014038084773346782,0.0,1.0,0.0
42,253,-1064.3192138671875,4.4984822273254395,-0.062206268310546875,5.754887104034424,0.0015876764664426446,-0.0005625328049063683,1.9467830657958984,0.001986499410122633,0.0017252052202820778,0.002174927154555917,0.005607386585325003,-0.004971505142748356,0.005426366813480854,0.1665063351392746,0.06812944263219833,0.0,0.949999988079071,-0.0010731712682172656
42,252,-1066.2901611328125,4.510594367980957,0.07905036956071854,5.77449369430542,0.013956908136606216,0.0010364645859226584,1.9434452056884766,-0.02244403585791588,-0.0003250548616051674,-0.25372549891471863,0.00976001936942339,-0.042069628834724426,-0.8105468153953552,0.9129776954650879,-0.004730223678052425,0.0,1.0,0.0
43,253,-1063.7926025390625,4.498642921447754,-0.062252502888441086,5.928491592407227,0.0018262857338413596,-0.00049488281365484,1.9147872924804688,0.001891131978482008,-0.0003550550900399685,0.0018247142434120178,0.005785685032606125,-0.0023629486095160246,0.005248974543064833,0.1659940779209137,0.06780647486448288,0.0,0.949999988079071,-0.0010322793386876583
43,252,-1065.8212890625,4.510408878326416,0.07902156561613083,5.928683757781982,0.012193327769637108,0.0011125057935714722,1.914834976196289,-0.021774228662252426,-0.0009395182132720947,-0.2209261804819107,0.0100945383310318,-0.03380304202437401,-0.7917479872703552,0.9121717214584351,-0.007415770553052425,0.0,1.0,0.0
44,253,-1063.4329833984375,4.498706817626953,-0.06227859482169151,6.042643070220947,-0.00010882692004088312,-0.00042602134635671973,1.893758773803711,-0.04804813489317894,0.0007682130672037601,-0.011831247247755527,0.005718130152672529,-0.030808374285697937,0.005467905662953854,0.16564573347568512,0.06708139926195145,0.0,0.949999988079071,-0.0018639370100572705
44,252,-1065.461669921875,4.510278701782227,0.0790044367313385,6.04283332824707,0.010801540687680244,0.0011536149540916085,1.893758773803711,-0.021247565746307373,0.0005789916031062603,-0.200654536485672,0.0100736478343606,-0.035414695739746094,-0.7791747450828552,0.91157066822052,-0.00921630673110485,0.0,1.0,0.0
45,253,-1063.008544921875,4.498661518096924,-0.062371138483285904,6.061376094818115,7.79423407948343e-06,-0.0023388094268739223,-0.11048316955566406,0.025865036994218826,-0.024520978331565857,0.0008005152340047061,0.05983918905258179,-0.09433884918689728,0.006065230816602707,0.1632005274295807,0.06195733696222305,0.0,0.949999988079071,-0.0011554056545719504
45,252,-1065.037353515625,4.510210037231445,0.07899421453475952,6.064357280731201,0.009111842140555382,0.014329103752970695,-0.08311271667480469,-0.024688802659511566,0.13162465393543243,-0.15974602103233337,0.12543800473213196,-0.006940268445760012,-0.7669676542282104,0.9063318967819214,-0.01065063290297985,0.0,1.0,0.0
46,253,-1062.64501953125,4.498706340789795,-0.06252700835466385,6.074502468109131,0.00028344389284029603,-0.002684625331312418,1.714468002319336,-0.0037600635550916195,0.03415944427251816,0.005601313430815935,0.06776389479637146,-0.09894570708274841,0.005776986479759216,0.15900678932666779,0.05584516003727913,0.0,0.949999988079071,-0.0011554056545719504
46,252,-1064.61279296875,4.510321140289307,0.07898185402154922,6.094454765319824,0.007712928112596273,0.011058946140110493,1.7162799835205078,-0.010079191997647285,-0.27505365014076233,-0.14071021974086761,0.09734760224819183,0.0041391062550246716,-0.7565001845359802,0.8968788981437683,-0.010223387740552425,0.0,1.0,0.0
47,253,-1062.152587890625,4.4988322257995605,-0.0626303106546402,6.219034671783447,0.0013177900109440088,-0.0005993293598294258,1.81121826171875,0.0019894330762326717,0.018759258091449738,0.009391755796968937,0.013801319524645805,-0.02786659076809883,0.004953859839588404,0.15632252395153046,0.051542654633522034,0.0,0.949999988079071,-0.0007765980553813279
47,252,-1064.181396484375,4.510385036468506,0.07897277921438217,6.219011306762695,0.006604374386370182,0.0005867393338121474,1.794576644897461,-0.017140386626124382,-0.08179113268852234,-0.11500824987888336,0.004674410447478294,-0.0066251568496227264,-0.747650146484375,0.8944132328033447,-0.010223388671875,0.0,1.0,0.0
48,253,-1061.648681640625,4.498965740203857,-0.06263168156147003,6.363204002380371,0.0015790739562362432,0.0003041934105567634,1.7942428588867188,0.0032845069654285908,0.00657636858522892,0.0051258462481200695,-0.007372613530606031,0.003345112083479762,0.00446329964324832,0.1562337428331375,0.050815265625715256,0.0,0.949999988079071,-0.0007198587991297245
48,252,-1063.677490234375,4.510394096374512,0.07897033542394638,6.362656593322754,0.005228743422776461,-0.0022881741169840097,1.792764663696289,-0.017057079821825027,-0.013022148050367832,-0.08399990200996399,-0.02120690979063511,-0.011265605688095093,-0.7398682236671448,0.8955060243606567,-0.010925292037427425,0.0,1.0,0.0
49,253,-1061.133056640625,4.49907112121582,-0.06259673833847046,6.505886077880859,0.001046684687025845,0.000545949675142765,1.7751693725585938,-0.0038072699680924416,0.0009160023182630539,-0.001974533312022686,-0.014398705214262009,0.004471702501177788,0.004353323020040989,0.15727192163467407,0.05132540687918663,0.0,0.949999988079071,-0.0009274956537410617
49,252,-1063.0966796875,4.510380268096924,0.07897033542394638,6.523138999938965,0.0037440205924212933,-0.0023865182884037495,1.774740219116211,-0.015402142889797688,0.0047993846237659454,-0.05412139371037483,-0.021454984322190285,-0.011775564402341843,-0.7337645888328552,0.897527813911438,-0.011901854537427425,0.0,1.0,0.0
50,253,-1060.606201171875,4.499148845672607,-0.06255760043859482,6.647047519683838,0.0011306442320346832,0.0005058164824731648,1.7562389373779297,0.0026821275241672993,-0.0012140488252043724,-0.0012154483702033758,-0.014964568428695202,0.004820869769901037,0.004506911616772413,0.15848086774349213,0.051646918058395386,0.0,0.949999988079071,-0.0008729532710276544
50,252,-1062.5015869140625,4.510396957397461,0.07896506786346436,6.681804656982422,0.002448861952871084,-0.001819820492528379,1.7535209655761719,-0.013689626939594746,0.007049262057989836,-0.02784401923418045,-0.015598203986883163,-0.006011366844177246,-0.7302550077438354,0.8991670608520508,-0.012634276412427425,0.0,1.0,0.0
51,253,-1060.1361083984375,4.499173641204834,-0.06252975016832352,6.769333839416504,-0.0004854246217291802,0.0003973178390879184,1.7399787902832031,-0.02776622213423252,-0.0017019978258758783,-0.01110716350376606,-0.013075532391667366,-0.019783878698945045,0.00489113898947835,0.15945759415626526,0.05135537311434746,0.0,0.949999988079071,-0.0014482942642644048
51,252,-1062.164794921875,4.51039981842041,0.078959159553051,6.769112586975098,0.0017145470483228564,-0.00146868999581784,1.7414569854736328,-0.012673693709075451,0.006703485269099474,-0.017201058566570282,-0.012191833928227425,-0.009331192821264267,-0.7291259765625,0.8998432159423828,-0.013000487349927425,0.0,1.0,0.0
52,253,-1059.6573486328125,4.499078273773193,-0.06250930577516556,6.890491962432861,-0.0015206466196104884,0.0002777242916636169,1.7239570617675781,-0.010182300582528114,-0.0015939818695187569,-0.009135612286627293,-0.01035182923078537,-0.04365167394280434,0.005635002627968788,0.16027037799358368,0.048916179686784744,0.0,0.949999988079071,-0.0014482942642644048
52,252,-1061.6170654296875,4.51040506362915,0.0789496973156929,6.907588481903076,0.0008279612520709634,-0.0009909915970638394,1.723337173461914,-0.005056185182183981,0.007018295582383871,0.008048363961279392,-0.007626959588378668,-0.005375572945922613,-0.728759765625,0.9006218910217285,-0.013641357421875,0.0,1.0,0.0
53,253,-1059.0997314453125,4.499083995819092,-0.062496185302734375,7.027606010437012,0.000395021284930408,0.00017433527682442218,1.7059326171875,0.007412414066493511,-0.001320218201726675,0.0060355872847139835,-0.006251051090657711,-0.013461761176586151,0.005376508925110102,0.1610421985387802,0.04698316752910614,0.0,0.949999988079071,-0.0008500637486577034
53,252,-1061.0582275390625,4.510499000549316,0.07893627136945724,7.044539451599121,-1.270044549528393e-06,-0.0007494443561881781,1.7049789428710938,-0.01002603117376566,0.006882788147777319,0.019699804484844208,-0.005880005657672882,0.0034343302249908447,-0.7299194931983948,0.9009770154953003,-0.0135498046875,0.0,1.0,0.0
54,253,-1058.4595947265625,4.499173641204834,-0.062487028539180756,7.180140018463135,0.0010320554720237851,7.102247036527842e-05,1.6860008239746094,0.003752263728529215,-0.000902172178030014,0.0052198381163179874,-0.0029737167060375214,0.0046281833201646805,0.004825834184885025,0.16143150627613068,0.04677261784672737,0.0,0.949999988079071,-0.0007646108279004693
54,252,-1060.41650390625,4.510632038116455,0.07893165200948715,7.196949481964111,-0.0007934730383567512,-0.000328930007526651,1.6847610473632812,-0.0080772265791893,0.005284399725496769,0.03664684295654297,-0.002208445454016328,0.005496912635862827,-0.7325744032859802,0.9013321995735168,-0.01315307430922985,0.0,1.0,0.0
55,253,-1057.9522705078125,4.499249458312988,-0.062485046684741974,7.297545433044434,0.0009554835269227624,1.61203552124789e-05,1.670694351196289,-0.0008613220416009426,-0.0005799531354568899,0.001383146271109581,-0.0009956317953765392,0.006192120257765055,0.004631586838513613,0.16154763102531433,0.04715657979249954,0.0,0.949999988079071,-0.0008444692357443273
55,252,-1059.981201171875,4.510722637176514,0.07892986387014389,7.297544002532959,-0.0012471501249819994,-0.0001406536903232336,1.6711235046386719,-0.0068594119511544704,0.0033561140298843384,0.04636341333389282,-0.0006079935119487345,0.005543274339288473,-0.7351075410842896,0.9014073610305786,-0.01287841796875,0.0,1.0,0.0
56,253,-1057.3624267578125,4.499310493469238,-0.062486037611961365,7.430425643920898,0.00012456013064365834,-2.973902883240953e-05,1.6534805297851562,-0.037202656269073486,-0.00042676928569562733,-0.00596172409132123,0.000656178395729512,-0.005994254257529974,0.004581853281706572,0.16158176958560944,0.04751436412334442,0.0,0.949999988079071,-0.001301601529121399
56,252,-1059.391357421875,4.510849475860596,0.07893161475658417,7.430450439453125,-0.0017970566404983401,4.1875540773617104e-05,1.6537666320800781,-0.00705675920471549,0.0022536516189575195,0.05397360399365425,0.0009161257767118514,0.004554496146738529,-0.7392576932907104,0.9013868570327759,-0.012451171875,0.0,1.0,0.0
57,253,-1056.686279296875,4.499245643615723,-0.062490079551935196,7.578287601470947,-0.00028565849061124027,-6.00444691372104e-05,1.6345024108886719,0.017958931624889374,-0.000245047704083845,-0.0006493728142231703,0.0018841474084183574,-0.021957626566290855,0.005265158135443926,0.16143834590911865,0.04554138705134392,0.0,0.949999988079071,-0.0008979627746157348
57,252,-1058.6392822265625,4.510986328125,0.07893264293670654,7.594662189483643,-0.002209416823461652,0.000194191190530546,1.6327381134033203,-0.00407821498811245,0.0016844728961586952,0.06993791460990906,0.0022462117485702038,0.0071293022483587265,-0.74566650390625,0.901229739189148,-0.012207030318677425,0.0,1.0,0.0
58,253,-1056.228271484375,4.49925422668457,-0.06249381974339485,7.675917625427246,0.00015610440459568053,-7.547180575784296e-05,1.6219139099121094,0.003077123314142227,-0.00015367331798188388,0.002635016804561019,0.0024257884360849857,-0.013797314837574959,0.005147951189428568,0.16130173206329346,0.044540587812662125,0.0,0.949999988079071,-0.0008979627746157348
58,252,-1058.18017578125,4.511104106903076,0.07893470674753189,7.692178249359131,-0.002434290014207363,0.0002513334038667381,1.6200542449951172,-0.0033899210393428802,0.0010195362847298384,0.07298681139945984,0.002745909383520484,0.009003669023513794,-0.7499389052391052,0.9010726809501648,-0.011749266646802425,0.0,1.0,0.0
59,253,-1055.530029296875,4.499312400817871,-0.06250061094760895,7.820970058441162,0.0007834714488126338,-8.733883441891521e-05,1.6034126281738281,0.00425196485593915,-5.572146619670093e-05,0.004378002602607012,0.0029444308020174503,7.669371370866429e-06,0.004877516999840736,0.1611173301935196,0.04398827999830246,0.0,0.949999988079071,-0.0007671953644603491
59,252,-1057.5589599609375,4.511279582977295,0.0789376050233841,7.821049690246582,-0.0026304975617676973,0.0003304670681245625,1.603841781616211,-0.002216431312263012,0.001385033829137683,0.07869332283735275,0.0034328235778957605,0.010336422361433506,-0.756072998046875,0.9008199572563171,-0.011047364212572575,0.0,1.0,0.0
60,253,-1054.978271484375,4.499370098114014,-0.06250640749931335,7.932648181915283,0.0007199692772701383,-9.376629895996302e-05,1.589345932006836,-0.00038666767068207264,-0.00012503587640821934,0.0013984329998493195,0.0031309269834309816,0.001641619484871626,0.004641547799110413,0.160912424325943,0.04404161497950554,0.0,0.949999988079071,-0.0008304034126922488
60,252,-1056.927734375,4.511451244354248,0.07894080877304077,7.948611259460449,-0.002766016637906432,0.00038322104956023395,1.587533950805664,-0.001084664836525917,0.0009086885256692767,0.08266664296388626,0.003933188039809465,0.009048919193446636,-0.762542724609375,0.9005194306373596,-0.010406494140625,0.0,1.0,0.0
61,253,-1054.418701171875,4.499387264251709,-0.0625123605132103,8.043339729309082,-0.00036404153797775507,-0.0001008216422633268,1.5752792358398438,-0.019233496859669685,-0.0002065258740913123,-0.006156769581139088,0.003160848282277584,-0.014118577353656292,0.004757412243634462,0.16062554717063904,0.04377978667616844,0.0,0.949999988079071,-0.0011761453934013844
61,252,-1056.447509765625,4.511563777923584,0.07894408702850342,8.04343318939209,-0.0028642110992223024,0.0004136890056543052,1.5752792358398438,-0.0005769310519099236,-0.00014816178008913994,0.0828041210770607,0.004257368855178356,0.005003748461604118,-0.767486572265625,0.900266706943512,-0.01004028134047985,0.0,1.0,0.0
62,253,-1053.9326171875,4.499350070953369,-0.06251800060272217,8.137443542480469,-0.00029459374491125345,-9.954293636837974e-05,1.5634536743164062,0.01178176049143076,4.267931217327714e-05,-0.0011915428331121802,0.003136607352644205,-0.018233807757496834,0.0050390674732625484,0.16044113039970398,0.04259774461388588,0.0,0.949999988079071,-0.0008843316463753581
62,252,-1055.8798828125,4.511685848236084,0.07894645631313324,8.153165817260742,-0.0028237372171133757,0.0004531924205366522,1.5616416931152344,0.00022193416953086853,0.0003999302862212062,0.08705952018499374,0.004647209774702787,0.0065518817864358425,-0.77349853515625,0.8999525308609009,-0.009796143509447575,0.0,1.0,0.0
63,253,-1053.3583984375,4.4993510246276855,-0.06252449005842209,8.246343612670898,0.00011055427603423595,-9.764738206285983e-05,1.5499114990234375,0.01221380103379488,8.030765457078815e-05,0.002337248995900154,0.003067964455112815,-0.011530794203281403,0.004967478569597006,0.16021573543548584,0.04157688841223717,0.0,0.949999988079071,-0.0007812261465005577
63,252,-1055.3045654296875,4.511830806732178,0.07894931733608246,8.261938095092773,-0.0027804835699498653,0.0004719644784927368,1.548004150390625,0.0010815216228365898,-0.000358311808668077,0.08636516332626343,0.004839055240154266,0.007808496709913015,-0.7795410752296448,0.899638295173645,-0.009368896484375,0.0,1.0,0.0
64,253,-1052.693359375,4.499391078948975,-0.06253204494714737,8.369641304016113,0.0005108857294544578,-0.00010012277925852686,1.5344619750976562,0.0022979597561061382,6.139453034847975e-05,0.002977543044835329,0.0029750517569482327,-0.0021332683973014355,0.004740044008940458,0.16001082956790924,0.041151825338602066,0.0,0.949999988079071,-0.0007812261465005577
64,252,-1054.6383056640625,4.512002944946289,0.07895088195800781,8.385086059570312,-0.0026941760443150997,0.0004827539378311485,1.5324592590332031,0.0013888813555240631,-0.00016209669411182404,0.08468934893608093,0.0049617053009569645,0.007457999046891928,-0.786376953125,0.8992421627044678,-0.00885009579360485,0.0,1.0,0.0
65,253,-1052.018310546875,4.499444484710693,-0.06253936886787415,8.491715431213379,0.0006625069654546678,-0.00010200114775216207,1.5192985534667969,0.0014962570276111364,6.70850567985326e-05,0.001730326795950532,0.0028397436253726482,0.0023143431171774864,0.004544997587800026,0.15977177023887634,0.04115491732954979,0.0,0.949999988079071,-0.0007724066381342709
65,252,-1053.8768310546875,4.512189865112305,0.07895374298095703,8.522167205810547,-0.002537210937589407,0.0004827476805076003,1.5155792236328125,0.0019707949832081795,9.562063496559858e-05,0.08277520537376404,0.005010784137994051,0.006191119085997343,-0.7939147353172302,0.8987845182418823,-0.00836181640625,0.0,1.0,0.0
66,253,-1051.33349609375,4.499499797821045,-0.06254691630601883,8.612587928771973,0.000694580958224833,-0.0001006810343824327,1.5044212341308594,0.0007048482075333595,-0.00013740718713961542,0.00046844943426549435,0.0027069817297160625,0.0030594137497246265,0.004460741300135851,0.1595463752746582,0.04137284681200981,0.0,0.949999988079071,-0.0007865845691412687
66,252,-1053.276123046875,4.512333393096924,0.0789557620882988,8.627737998962402,-0.002378620207309723,0.0004909321432933211,1.5026092529296875,0.0024396460503339767,-0.00017327256500720978,0.08065805584192276,0.0050889174453914165,0.005427776835858822,-0.7996215224266052,0.8984293937683105,-0.008056640625,0.0,1.0,0.0
67,253,-1050.5516357421875,4.49953031539917,-0.06255515664815903,8.747148513793945,-0.0003541161131579429,-9.959701128536835e-05,1.48773193359375,-0.019807687029242516,6.631598807871342e-05,-0.006698442157357931,0.0025535335298627615,-0.012946192175149918,0.004641184117645025,0.15928682684898376,0.041263874620199203,0.0,0.949999988079071,-0.0011290177935734391
67,252,-1052.580322265625,4.512476921081543,0.0789574384689331,8.747272491455078,-0.0022280586417764425,0.0005012144101783633,1.4878273010253906,0.002514221705496311,0.0001551059540361166,0.07498913258314133,0.005173360928893089,0.0010204485151916742,-0.8058165907859802,0.8980059027671814,-0.007843016646802425,0.0,1.0,0.0
68,253,-1049.8465576171875,4.499451160430908,-0.06256256252527237,8.865518569946289,-0.0007935285102576017,-0.00010038148320745677,1.4733314514160156,0.039064954966306686,-0.00010352014214731753,-0.002412147121503949,0.002445145044475794,-0.026106268167495728,0.005156391300261021,0.15908876061439514,0.039348799735307693,0.0,0.949999988079071,-0.0006897947168909013
68,252,-1051.8753662109375,4.5125813484191895,0.07895759493112564,8.865645408630371,-0.001960516907274723,0.0005129827186465263,1.4735221862792969,0.007433723658323288,0.00019117724150419235,0.0757165402173996,0.005332016386091709,-0.0004902894143015146,-0.8117674589157104,0.8975824117660522,-0.007995604537427425,0.0,1.0,0.0
69,253,-1049.3115234375,4.4994587898254395,-0.0625680536031723,8.95353889465332,0.0003265912819188088,-9.849909110926092e-05,1.462554931640625,0.010174451395869255,0.00012174859875813127,0.005421662237495184,0.0024055896792560816,-0.008490626700222492,0.004996780306100845,0.1589658111333847,0.03853662312030792,0.0,0.949999988079071,-0.0006897947168909013
69,252,-1051.250732421875,4.51271390914917,0.07895965129137039,8.968277931213379,-0.0017339781625196338,0.0005143272574059665,1.4609336853027344,0.00284312991425395,0.0006057322025299072,0.0686357393860817,0.005277694668620825,0.004029558971524239,-0.8168029189109802,0.8972067832946777,-0.007843017578125,0.0,1.0,0.0
70,253,-1048.5899658203125,4.4995245933532715,-0.06257522106170654,9.069904327392578,0.0008907748269848526,-9.903475438477471e-05,1.4484405517578125,0.005236989818513393,-8.404094842262566e-05,0.00502842478454113,0.00239018932916224,0.005530174355953932,0.004558751825243235,0.15877456963062286,0.038375310599803925,0.0,0.949999988079071,-0.0006485407939180732
70,252,-1050.6187744140625,4.51284646987915,0.0789603441953659,9.070034980773926,-0.0015180420596152544,0.000514824700076133,1.4483451843261719,0.003094866406172514,-0.00030700466595590115,0.064171701669693,0.005246305372565985,0.003353770822286606,-0.821441650390625,0.8968174457550049,-0.007659910712391138,0.0,1.0,0.0
71,253,-1047.8592529296875,4.49957275390625,-0.06258239597082138,9.185145378112793,-0.0002057048841379583,-9.884290193440393e-05,1.4344215393066406,-0.022910427302122116,0.00013297249097377062,-0.005602847784757614,0.0023357211612164974,-0.006750950589776039,0.004459685180336237,0.15856283903121948,0.038731858134269714,0.0,0.949999988079071,-0.0010728145716711879
71,252,-1049.8880615234375,4.512969493865967,0.07896102964878082,9.185269355773926,-0.001338014262728393,0.0005213571712374687,1.434326171875,0.0029107206501066685,0.0003608583938330412,0.05626446753740311,0.005241142585873604,-0.0027302082162350416,-0.8262023329734802,0.8964076638221741,-0.007659911643713713,0.0,1.0,0.0
72,253,-1047.026123046875,4.49951696395874,-0.06259047985076904,9.313465118408203,-0.0003146156668663025,-9.670032159192488e-05,1.4188766479492188,0.005541488528251648,0.00018242353689856827,-0.0006805394659750164,0.0022649054881185293,-0.014203137718141079,0.004861435387283564,0.15835793316364288,0.03737284243106842,0.0,0.949999988079071,-0.000819596229121089
72,252,-1048.961669921875,4.513070583343506,0.07896064221858978,9.327762603759766,-0.0009794101351872087,0.0005223914631642401,1.4169692993164062,0.0030375667847692966,-0.0014218094293028116,0.05270073935389519,0.0052400752902030945,-0.0026913874316960573,-0.8317564129829407,0.895881712436676,-0.008148192428052425,0.0,1.0,0.0
73,253,-1046.46435546875,4.499512672424316,-0.0625956729054451,9.398244857788086,0.00014250102685764432,-9.718375076772645e-05,1.4087677001953125,0.015530434437096119,-3.985114744864404e-05,0.003138642990961671,0.0022231517359614372,-0.007318952586501837,0.004798153415322304,0.1582144945859909,0.036685556173324585,0.0,0.949999988079071,-0.000649749010335654
73,252,-1048.3990478515625,4.51314640045166,0.07896125316619873,9.412440299987793,-0.0007741574663668871,0.0005265128565952182,1.4072418212890625,0.0032297801226377487,0.001117214560508728,0.048946358263492584,0.005241142585873604,-0.0012551526306197047,-0.8347778916358948,0.8955675363540649,-0.008300780318677425,0.0,1.0,0.0
74,253,-1045.802490234375,4.499556064605713,-0.06260161846876144,9.496383666992188,0.0006179053452797234,-9.890397632261738e-05,1.396942138671875,0.0009300187230110168,-5.642505129799247e-05,0.0036055739037692547,0.002251013182103634,0.0031073938589543104,0.0045439996756613255,0.1580847203731537,0.03663057088851929,0.0,0.949999988079071,-0.0006945538334548473
74,252,-1047.831298828125,4.513227939605713,0.07896125316619873,9.49651050567627,-0.000604695116635412,0.0005352243897505105,1.396942138671875,0.002674420829862356,0.0006983580533415079,0.043141718953847885,0.005268236622214317,-0.0010263437870889902,-0.8375244140625,0.8952601552009583,-0.008392333053052425,0.0,1.0,0.0
75,253,-1044.84521484375,4.499608516693115,-0.06261016428470612,9.635162353515625,-0.00010743578604888171,-9.60488396231085e-05,1.3803482055664062,-0.022162415087223053,6.934860721230507e-05,-0.004372292663902044,0.0021874504163861275,-0.004438803996890783,0.004355861805379391,0.15792763233184814,0.03695865347981453,0.0,0.949999988079071,-0.0010129676666110754
75,252,-1046.8740234375,4.513335704803467,0.07896240055561066,9.635282516479492,-0.0003741386462934315,0.0005343442899174988,1.3803482055664062,0.002089672489091754,0.0005275302100926638,0.03405376151204109,0.005169692449271679,-0.005332475528120995,-0.8414000868797302,0.8947274088859558,-0.008728028275072575,0.0,1.0,0.0
76,253,-1044.1668701171875,4.4995551109313965,-0.06261611729860306,9.731328010559082,-0.0006802474381402135,-8.409255678998306e-05,1.3689041137695312,0.022857554256916046,0.0012049153447151184,-0.003611041232943535,0.002103526843711734,-0.017360158264636993,0.004820651840418577,0.15768857300281525,0.035993970930576324,0.0,0.949999988079071,-0.0007198513485491276
76,252,-1046.0982666015625,4.513373851776123,0.07896198332309723,9.745119094848633,-0.00012325571151450276,0.0005299964686855674,1.3675689697265625,0.003939859569072723,-0.0004408357199281454,0.03375712037086487,0.005128911696374416,-0.0069005838595330715,-0.8440551161766052,0.8943244218826294,-0.009338377974927425,0.0,1.0,0.0
77,253,-1043.3834228515625,4.499547958374023,-0.06262259930372238,9.840256690979004,7.612167246406898e-05,-8.464857819490135e-05,1.3559341430664062,0.004006231669336557,0.001168120768852532,0.0025123998057097197,0.002086274093016982,-0.006490787956863642,0.004731433000415564,0.15752464532852173,0.03515129163861275,0.0,0.949999988079071,-0.0007198513485491276
77,252,-1045.3138427734375,4.513439655303955,0.07896121591329575,9.853918075561523,7.074423047015443e-05,0.0005227735382504761,1.3545989990234375,0.00218220055103302,9.419163689017296e-05,0.025987746194005013,0.0050023263320326805,-0.004180826712399721,-0.8464049696922302,0.893921434879303,-0.009765625,0.0,1.0,0.0
78,253,-1042.492919921875,4.499603748321533,-0.062652587890625,9.911128044128418,0.0007487028487958014,-0.0010883955983445048,-0.15497207641601562,0.004095613025128841,-0.027313508093357086,0.004263648763298988,0.030984098091721535,-0.020471569150686264,0.004377709701657295,0.15673233568668365,0.034637853503227234,0.0,0.949999988079071,-0.000622921041212976
78,252,-1044.521728515625,4.513540267944336,0.07896102964878082,9.912752151489258,9.855026291916147e-05,0.007676974404603243,-0.11882781982421875,-0.0023901062086224556,0.16834205389022827,0.027970893308520317,0.0672125294804573,0.005972729995846748,-0.8484802842140198,0.8919543623924255,-0.0098876953125,0.0,1.0,0.0
79,253,-1041.6014404296875,4.499611854553223,-0.06279975920915604,9.92125129699707,-0.000717108603566885,-0.0017208528006449342,1.1270523071289062,-0.0145740807056427,0.021816160529851913,-0.0037322526331990957,0.044196717441082,-0.0711936205625534,0.00447844248265028,0.15238834917545319,0.029592957347631454,0.0,0.949999988079071,-0.0008927273447625339
79,252,-1043.6304931640625,4.513765335083008,0.07896663248538971,9.923051834106445,0.0001017092727124691,0.008792689070105553,1.0854721069335938,0.005274305120110512,-0.19098520278930664,0.014844785444438457,0.07803060859441757,0.01297591533511877,-0.850372314453125,0.8833073377609253,-0.00872802734375,0.0,1.0,0.0
80,253,-1041.0037841796875,4.49960994720459,-0.06285613775253296,9.995217323303223,0.00017037757788784802,-0.0005896565853618085,1.2483596801757812,0.011348683387041092,0.015242974273860455,0.005130949895828962,0.014529852196574211,-0.03549505025148392,0.004371056333184242,0.15086521208286285,0.026495879516005516,0.0,0.949999988079071,-0.00046399631537497044
80,252,-1042.9326171875,4.513906955718994,0.07896377146244049,10.007791519165039,0.00047827447997406125,0.0007695707608945668,1.2351036071777344,0.002933357609435916,-0.06457912176847458,0.016525285318493843,0.007116123102605343,0.004642197396606207,-0.8515625,0.8811079859733582,-0.008209228515625,0.0,1.0,0.0
81,253,-1040.4013671875,4.499654293060303,-0.06286605447530746,10.070049285888672,0.0007374079432338476,4.9253550969297066e-05,1.2454032897949219,0.007585796993225813,0.007741461507976055,0.006286473013460636,-0.0006405048770830035,-0.004889839794486761,0.004008777905255556,0.1505783349275589,0.02546275593340397,0.0,0.949999988079071,-0.0003845701867248863
81,252,-1042.12744140625,4.514012813568115,0.07896576076745987,10.106993675231934,0.0006445855251513422,-0.0015777808148413897,1.2406349182128906,0.0014607037883251905,-0.011809798888862133,0.015526331029832363,-0.01407769974321127,-0.0034387740306556225,-0.8528441786766052,0.8817227482795715,-0.008239745162427425,0.0,1.0,0.0
82,253,-1039.4893798828125,4.499732494354248,-0.06284210085868835,10.1817045211792,0.000640317564830184,0.00039745555841363966,1.236724853515625,-0.003311486216261983,0.001656005042605102,0.000283486966509372,-0.009821124374866486,0.01570011116564274,0.0037033618427813053,0.15116573870182037,0.02633058652281761,0.0,0.949999988079071,-0.0005180269363336265
82,252,-1041.5184326171875,4.514044284820557,0.07896774262189865,10.181334495544434,0.0006965528009459376,-0.0018119642045348883,1.23748779296875,0.0011876807548105717,0.0003823894076049328,0.013301749713718891,-0.016048463061451912,-0.009290800429880619,-0.8536681532859802,0.8826584815979004,-0.008666991256177425,0.0,1.0,0.0
83,253,-1038.67041015625,4.4997453689575195,-0.06281135231256485,10.28029727935791,-0.00028615788323804736,0.0004129410081077367,1.2290000915527344,-0.016163604333996773,-0.00043189211282879114,-0.00657946802675724,-0.01153293251991272,0.009022935293614864,0.003929357510060072,0.15205366909503937,0.027551349252462387,0.0,0.949999988079071,-0.0007888773689046502
83,252,-1040.493408203125,4.514021396636963,0.07896819710731506,10.304584503173828,0.0007528889691457152,-0.0015023064333945513,1.2281417846679688,0.0009206822142004967,0.003785674925893545,0.008505291305482388,-0.012797011993825436,-0.016064710915088654,-0.8547362685203552,0.884106457233429,-0.009979248046875,0.0,1.0,0.0
84,253,-1037.8436279296875,4.49968147277832,-0.06278419494628906,10.378274917602539,-0.0004927068948745728,0.00033509981585666537,1.221466064453125,0.008040823973715305,-0.0012002536095678806,-0.002855477388948202,-0.010570582933723927,0.002979827346280217,0.0044007799588143826,0.15294158458709717,0.027793481945991516,0.0,0.949999988079071,-0.0006162906065583229
84,252,-1039.7685546875,4.513978004455566,0.07896259427070618,10.39029312133789,0.000841969158500433,-0.0011878793593496084,1.2217521667480469,0.0008881906978785992,0.004899059422314167,0.007090577855706215,-0.009757725521922112,-0.014518181793391705,-0.85528564453125,0.8848782777786255,-0.011077880859375,0.0,1.0,0.0
85,253,-1037.0089111328125,4.499660015106201,-0.06276404857635498,10.475650787353516,1.6509506167494692e-05,0.00024178727471735328,1.2140274047851562,0.010695550590753555,-0.0012569725513458252,0.0017384950770065188,-0.008445621468126774,0.009598326869308949,0.004418789409101009,0.15369974076747894,0.02828231453895569,0.0,0.949999988079071,-0.0005256984150037169
85,252,-1039.037841796875,4.513949871063232,0.07895709574222565,10.4755220413208,0.0008948241011239588,-0.0008945917943492532,1.2146949768066406,0.000921695027500391,0.004050164483487606,0.003115209750831127,-0.007129209581762552,-0.011699121445417404,-0.8555907011032104,0.8854520320892334,-0.01199340634047985,0.0,1.0,0.0
86,253,-1036.2720947265625,4.499685764312744,-0.06275177001953125,10.56036376953125,0.0005008497973904014,0.00016892481653485447,1.2074470520019531,0.0053137424401938915,-0.001042830990627408,0.00290290336124599,-0.006377335172146559,0.017195234075188637,0.0042282938957214355,0.15421199798583984,0.029282690957188606,0.0,0.949999988079071,-0.0005256984150037169
86,252,-1038.301025390625,4.513937473297119,0.07895156741142273,10.560273170471191,0.0009278940851800144,-0.0006555816507898271,1.207733154296875,0.00037607387639582157,0.003282009856775403,-0.0007331430679187179,-0.005105339456349611,-0.009203423745930195,-0.85565185546875,0.8858208656311035,-0.012603759765625,0.0,1.0,0.0
87,253,-1035.4229736328125,4.499655246734619,-0.0627426877617836,10.656622886657715,-0.0006426094332709908,0.00010471037967363372,1.1999130249023438,-0.007344142068177462,-0.0006442933226935565,-0.004273845348507166,-0.004245791584253311,-0.0011368717532604933,0.004410163499414921,0.15457400679588318,0.029769880697131157,0.0,0.949999988079071,-0.0008068050956353545
87,252,-1037.451904296875,4.513888359069824,0.07894595712423325,10.656556129455566,0.0008876884239725769,-0.000439697498222813,1.200103759765625,0.00011282390914857388,0.0023355474695563316,-0.004816242028027773,-0.0034059963654726744,-0.012326535768806934,-0.8552855253219604,0.8862101435661316,-0.01361083984375,0.0,1.0,0.0
88,253,-1034.4583740234375,4.499609470367432,-0.06273704022169113,10.764199256896973,-0.00011263947089901194,5.0356684369035065e-05,1.1915206909179688,0.007309821899980307,-0.0006257891072891653,0.002068198984488845,-0.002234875690191984,0.00176433811429888,0.004605500027537346,0.15479256212711334,0.02956685610115528,0.0,0.949999988079071,-0.0005993192316964269
