time,vehicle_id,location_x,location_y,location_z,velocity_x,velocity_y,velocity_z,acceleration_x,acceleration_y,acceleration_z,angular_velocity_x,angular_velocity_y,angular_velocity_z,rotation_roll,rotation_pitch,rotation_yaw,control_brake,control_throttle,control_steer
1,195,-1146.8997802734375,4.500004291534424,1.9938939809799194,0.0035371731501072645,6.417445547413081e-05,-0.3007313907146454,-0.0002983957529067993,-4.548928700387478e-06,-9.796871185302734,0.002672353992238641,-0.2388269454240799,-0.0017639377620071173,-9.1552734375e-05,0.00716486806049943,-6.103515261202119e-05,0.0,0.0,0.0
1,194,-1096.8997802734375,4.500005722045898,1.9898998737335205,0.0035342578776180744,6.413072696886957e-05,-0.39869052171707153,-0.00029152724891901016,-4.372850526124239e-06,-9.795912742614746,0.002671061549335718,-0.23877274990081787,-0.0017629239009693265,-0.00012207030522404239,0.009555433876812458,-6.103515261202119e-05,0.0,0.0,0.0
1,193,-1123.9410400390625,4.500010013580322,2.1437056064605713,-0.028321251273155212,-0.0005137595580890775,-0.3375653624534607,0.0023212283849716187,3.4656841307878494e-05,-9.797435760498047,0.05224261060357094,-1.1150963306427002,-0.008345711044967175,-0.00103759765625,0.022307395935058594,-0.00015258787607308477,0.0,1.0,0.0
1,192,-1148.9410400390625,4.500020503997803,2.1406054496765137,-0.02829737588763237,-0.0005133956437930465,-0.43553122878074646,0.0023875385522842407,3.639142960309982e-05,-9.796586990356445,0.052250489592552185,-1.1150093078613281,-0.008341197855770588,-0.0015563963679596782,0.03345426544547081,-0.00024414058134425431,0.0,1.0,0.0
1,191,-1098.9405517578125,4.500030994415283,2.136526107788086,-0.02827404998242855,-0.0005130458157509565,-0.5334861874580383,0.0023325905203819275,3.498280420899391e-05,-9.795495986938477,0.05225904658436775,-1.1149437427520752,-0.008336947299540043,-0.0020751948468387127,0.04460113123059273,-0.00033569333027116954,0.0,1.0,0.0
1,190,-1071.898193359375,4.500021934509277,1.9449900388717651,0.005256704520434141,9.555032011121511e-05,-0.9896231889724731,-0.0006410758942365646,-9.361974662169814e-06,-9.789896011352539,0.003986362833529711,-0.35734668374061584,-0.002628425834700465,-0.0003967284574173391,0.03578335791826248,-0.00027465817402116954,0.0,0.0,0.0
1,189,-1073.9375,4.500150203704834,2.0906853675842285,-0.042053550481796265,-0.0007644025608897209,-1.191813588142395,0.0051293522119522095,7.489579729735851e-05,-9.789789199829102,0.07854526489973068,-1.6717555522918701,-0.012439574114978313,-0.007843016646802425,0.1672235131263733,-0.0012512205867096782,0.0,1.0,0.0
2,199,-1171.899169921875,4.500017166137695,1.9226903915405273,0.0035107780713588,6.37765260762535e-05,-1.182010293006897,-0.00029241200536489487,-4.403409548103809e-06,-9.78807258605957,0.0026605480816215277,-0.2383285015821457,-0.001754686702042818,-0.00030517569393850863,0.02865264192223549,-0.00021362301777116954,0.0,0.0,0.0
2,198,-1173.93896484375,4.500117301940918,2.068638801574707,-0.02808617241680622,-0.000510212208610028,-1.3167762756347656,0.002339668571949005,3.5227276384830475e-05,-9.787691116333008,0.05232582241296768,-1.114366888999939,-0.008302205242216587,-0.00628662109375,0.13377608358860016,-0.0010070801945403218,0.0,1.0,0.0
2,197,-1121.8988037109375,4.500022888183594,1.865593671798706,0.0034990652929991484,6.35998512734659e-05,-1.5734354257583618,-0.0002921558916568756,-4.402681952342391e-06,-9.784162521362305,0.002655305899679661,-0.23810793459415436,-0.0017505764262750745,-0.00042724609375,0.03816026449203491,-0.00027465817402116954,0.0,0.0,0.0
2,195,-1146.8988037109375,4.500024795532227,1.8488733768463135,0.0034961190540343523,6.355519144563004e-05,-1.6712671518325806,-0.00029462389647960663,-4.465982783585787e-06,-9.783172607421875,0.0026539755053818226,-0.23805144429206848,-0.001749534741975367,-0.0004577636136673391,0.04053717106580734,-0.00030517575214616954,0.0,0.0,0.0
2,194,-1096.898681640625,4.500026226043701,1.8311748504638672,0.0034931832924485207,6.351085903588682e-05,-1.7690892219543457,-0.0002935761585831642,-4.433240974321961e-06,-9.782207489013672,0.002652658149600029,-0.23799587786197662,-0.0017485020216554403,-0.00048828122089616954,0.04292773827910423,-0.00030517575214616954,0.0,0.0,0.0
2,193,-1123.93798828125,4.500161647796631,2.011204957962036,-0.027992449700832367,-0.0005087988101877272,-1.7081860303878784,0.002337805926799774,3.522145561873913e-05,-9.783756256103516,0.052359409630298615,-1.1140841245651245,-0.00828484259545803,-0.00836181640625,0.1783362329006195,-0.0013427734375,0.0,1.0,0.0
2,192,-1148.937744140625,4.500171661376953,1.994401216506958,-0.0279688760638237,-0.0005084415315650403,-1.8060141801834106,0.0023573637008666992,3.5727862268686295e-05,-9.782814979553223,0.052367568016052246,-1.114006757736206,-0.008280420675873756,-0.008880612440407276,0.18947626650333405,-0.0014343259390443563,0.0,1.0,0.0
2,191,-1098.937744140625,4.50018310546875,1.9766182899475098,-0.0279453843832016,-0.0005080868722870946,-1.9038325548171997,0.002349168062210083,3.546592779457569e-05,-9.781837463378906,0.052375879138708115,-1.11393404006958,-0.008276049979031086,-0.00942992977797985,0.20061630010604858,-0.0015258787898346782,0.0,1.0,0.0
2,190,-1071.8955078125,4.500051975250244,1.7035462856292725,0.0051672086119651794,9.424297604709864e-05,-2.359180450439453,-0.0006384216248989105,-9.331415640190244e-06,-9.776163101196289,0.003945978358387947,-0.3557319641113281,-0.00259654363617301,-0.0009460447472520173,0.08569838106632233,-0.0006408690824173391,0.0,0.0,0.0
2,189,-1073.931640625,4.500378608703613,1.847483515739441,-0.04133741930127144,-0.0007539438083767891,-2.5613527297973633,0.005108490586280823,7.465132512152195e-05,-9.776043891906738,0.07885421067476273,-1.6703671216964722,-0.01230650581419468,-0.01885986141860485,0.401150643825531,-0.0030517575796693563,0.0,1.0,0.0
3,199,-1171.8983154296875,4.500034809112549,1.7044477462768555,0.003475623670965433,6.324560672510415e-05,-2.355815887451172,-0.0002919929102063179,-4.406319931149483e-06,-9.77632999420166,0.002644781256094575,-0.237665057182312,-0.0017423243261873722,-0.0006408691988326609,0.0571960024535656,-0.00042724606464616954,0.0,0.0,0.0
3,198,-1173.936279296875,4.500248432159424,1.849387288093567,-0.027804870158433914,-0.0005059648538008332,-2.4905359745025635,0.0023366883397102356,3.525055944919586e-05,-9.775924682617188,0.05242612212896347,-1.1135064363479614,-0.008249864913523197,-0.012573241256177425,0.26743602752685547,-0.00201416015625,0.0,1.0,0.0
3,197,-1121.89794921875,4.500040531158447,1.6004106998443604,0.0034638983197510242,6.306813156697899e-05,-2.7467715740203857,-0.0002919696271419525,-4.404137143865228e-06,-9.772443771362305,0.0026395036838948727,-0.23744310438632965,-0.0017381857614964247,-0.0007324217585846782,0.06668996065855026,-0.00048828116268850863,0.0,0.0,0.0
3,195,-1146.89794921875,4.500041961669922,1.5719584226608276,0.003461013548076153,6.30248905508779e-05,-2.8444859981536865,-0.00028847716748714447,-4.32410161010921e-06,-9.771442413330078,0.0026382277719676495,-0.2373906821012497,-0.0017371820285916328,-0.0007629393367096782,0.06906686723232269,-0.0005187987699173391,0.0,0.0,0.0
3,194,-1096.8978271484375,4.5000433921813965,1.5425289869308472,0.0034580619540065527,6.298001972027123e-05,-2.942190408706665,-0.00029515940696001053,-4.487083060666919e-06,-9.770441055297852,0.002636888064444065,-0.23733380436897278,-0.0017361330101266503,-0.0007934569730423391,0.07143011689186096,-0.000518798828125,0.0,0.0,0.0
3,193,-1123.9354248046875,4.50029182434082,1.7450153827667236,-0.027711035683751106,-0.0005045450525358319,-2.881476640701294,0.0023366883397102356,3.523309715092182e-05,-9.772038459777832,0.05245932191610336,-1.1132134199142456,-0.008232271298766136,-0.014648438431322575,0.3119688630104065,-0.002349853515625,0.0,1.0,0.0
3,192,-1148.9351806640625,4.500302314758301,1.716478943824768,-0.027687950059771538,-0.0005041991244070232,-2.979186534881592,0.002308562397956848,3.459281288087368e-05,-9.770989418029785,0.05246809870004654,-1.1131541728973389,-0.008228030055761337,-0.01519775576889515,0.32309526205062866,-0.0024414057843387127,0.0,1.0,0.0
3,191,-1098.9349365234375,4.500312805175781,1.686966061592102,-0.02766432613134384,-0.0005038401577621698,-3.076887845993042,0.002362392842769623,3.589666448533535e-05,-9.77013111114502,0.05247614160180092,-1.1130741834640503,-0.008223552256822586,-0.015716552734375,0.3342284560203552,-0.002532958984375,0.0,1.0,0.0
3,190,-1071.893310546875,4.500078201293945,1.3440922498703003,0.0050905607640743256,9.311967005487531e-05,-3.531559705734253,-0.0006352085620164871,-9.295763447880745e-06,-9.764432907104492,0.003911242820322514,-0.35435232520103455,-0.002569095464423299,-0.0014343259390443563,0.12828460335731506,-0.0009460448054596782,0.0,0.0,0.0
3,189,-1073.9268798828125,4.500575065612793,1.4865422248840332,-0.04072397202253342,-0.0007449573604390025,-3.733713388442993,0.00508427619934082,7.436610758304596e-05,-9.764266014099121,0.07911869883537292,-1.669161081314087,-0.012190836481750011,-0.028381342068314552,0.6015074253082275,-0.004608153831213713,0.0,1.0,0.0
4,199,-1171.8975830078125,4.500049114227295,1.4150429964065552,0.0034463563933968544,6.280284287640825e-05,-3.332911491394043,-0.0002921326085925102,-4.4143234845250845e-06,-9.766554832458496,0.002631619106978178,-0.23711274564266205,-0.001731999684125185,-0.0009155274019576609,0.08093090355396271,-0.0006103515042923391,0.0,0.0,0.0
4,198,-1173.9339599609375,4.500368118286133,1.5247505903244019,-0.027546944096684456,-0.0005020614480599761,-3.565244674682617,0.0023694708943367004,3.612949512898922e-05,-9.765219688415527,0.05251724645495415,-1.1126993894577026,-0.008201416581869125,-0.018341058865189552,0.3898671865463257,-0.0029602048452943563,0.0,1.0,0.0
4,197,-1121.897216796875,4.500056743621826,1.2337132692337036,0.0034317364916205406,6.258139183046296e-05,-3.8210930824279785,-0.0002892687916755676,-4.358298610895872e-06,-9.761691093444824,0.0026250320952385664,-0.2368370145559311,-0.00172683026175946,-0.00103759765625,0.09277445077896118,-0.0006713866605423391,0.0,0.0,0.0
4,195,-1146.897216796875,4.500057697296143,1.194519281387329,0.0034287620801478624,6.253584433579817e-05,-3.9186999797821045,-0.00029744114726781845,-4.554749466478825e-06,-9.760689735412598,0.0026236651465296745,-0.23677842319011688,-0.0017257611034438014,-0.0010681151179596782,0.09513770043849945,-0.0007019041804596782,0.0,0.0,0.0
4,194,-1096.8970947265625,4.500059604644775,1.1543488502502441,0.0034258486703038216,6.249175203265622e-05,-4.016297340393066,-0.00029134098440408707,-4.409230314195156e-06,-9.759736061096191,0.002622355241328478,-0.2367239147424698,-0.001724732224829495,-0.0010986328125,0.09750094264745712,-0.0007019042386673391,0.0,0.0,0.0
4,193,-1123.9329833984375,4.5004119873046875,1.377402424812317,-0.02745361253619194,-0.0005006511346437037,-3.9557533264160156,0.0023154541850090027,3.486638888716698e-05,-9.761190414428711,0.052550867199897766,-1.1124202013015747,-0.008183891884982586,-0.02044677548110485,0.4343726933002472,-0.0032958979718387127,0.0,1.0,0.0
4,192,-1148.9327392578125,4.500422477722168,1.3381251096725464,-0.02742980234324932,-0.0005002867546863854,-4.053357124328613,0.0023810192942619324,3.64379957318306e-05,-9.760379791259766,0.05255857855081558,-1.1123312711715698,-0.00817929208278656,-0.02096557430922985,0.4454922378063202,-0.0033874509390443563,0.0,1.0,0.0
4,191,-1098.9326171875,4.50043249130249,1.2978713512420654,-0.0274064764380455,-0.0004999340162612498,-4.150949954986572,0.0023325905203819275,3.527384251356125e-05,-9.759283065795898,0.05256699025630951,-1.112261414527893,-0.008174898102879524,-0.021484375,0.45661860704421997,-0.00347900390625,0.0,1.0,0.0
4,190,-1071.891357421875,4.500101566314697,0.8910834193229675,0.00502039073035121,9.208854316966608e-05,-4.605004787445068,-0.0006361398845911026,-9.337964002043009e-06,-9.753704071044922,0.003879333846271038,-0.3530932068824768,-0.0025438584852963686,-0.0018615720327943563,0.167189359664917,-0.0012207028921693563,0.0,0.0,0.0
4,189,-1073.92236328125,4.500754356384277,1.0321831703186035,-0.04016217216849327,-0.0007367083453573287,-4.807139873504639,0.0050943344831466675,7.470371201634407e-05,-9.75351333618164,0.0793612003326416,-1.6680516004562378,-0.012083596549928188,-0.037109375,0.7850550413131714,-0.006042480003088713,0.0,1.0,0.0
5,199,-1171.897216796875,4.500057697296143,1.194519281387329,0.0034287620801478624,6.253584433579817e-05,-3.9186999797821045,-0.00029744114726781845,-4.554749466478825e-06,-9.760689735412598,0.0026236651465296745,-0.23677842319011688,-0.0017257611034438014,-0.0010681151179596782,0.09513770043849945,-0.0007019041804596782,0.0,0.0,0.0
5,198,-1173.9327392578125,4.500422477722168,1.3381251096725464,-0.02742980234324932,-0.0005002867546863854,-4.053357124328613,0.0023810192942619324,3.64379957318306e-05,-9.760379791259766,0.05255857855081558,-1.1123312711715698,-0.00817929208278656,-0.02096557430922985,0.4454922378063202,-0.0033874509390443563,0.0,1.0,0.0
5,197,-1121.89697265625,4.500063896179199,1.0279827117919922,0.003417099127545953,6.235934415599331e-05,-4.309030532836914,-0.00029008369892835617,-4.383764462545514e-06,-9.756803512573242,0.002618418075144291,-0.23655974864959717,-0.0017216408159583807,-0.0011596678523346782,0.1046043410897255,-0.0007629393367096782,0.0,0.0,0.0
5,195,-1146.896728515625,4.500066757202148,0.938861072063446,0.0034112553112208843,6.227051926543936e-05,-4.50413703918457,-0.0002911081537604332,-4.415051080286503e-06,-9.75484848022461,0.0026157728862017393,-0.23644939064979553,-0.0017195639666169882,-0.0012207028921693563,0.1093444898724556,-0.0007934569730423391,0.0,0.0,0.0
5,194,-1096.896728515625,4.500068187713623,0.8928365707397461,0.0034083377104252577,6.222638330655172e-05,-4.601675510406494,-0.00029176007956266403,-4.413595888763666e-06,-9.753847122192383,0.002614459954202175,-0.23639459908008575,-0.0017185331089422107,-0.0012512205867096782,0.11170090734958649,-0.0008239744929596782,0.0,0.0,0.0
5,193,-1123.9315185546875,4.500476360321045,1.1271016597747803,-0.02731294557452202,-0.0004985173582099378,-4.541224956512451,0.0023480504751205444,3.573950380086899e-05,-9.755420684814453,0.0526001900434494,-1.1119714975357056,-0.008157199248671532,-0.02359008602797985,0.501096785068512,-0.0038146974984556437,0.0,1.0,0.0
5,192,-1148.9315185546875,4.500487327575684,1.0819700956344604,-0.027289636433124542,-0.0004981641541235149,-4.638769626617432,0.0023309141397476196,3.532040864229202e-05,-9.754467010498047,0.05260862410068512,-1.1119016408920288,-0.008152782917022705,-0.02413940243422985,0.512216329574585,-0.0039062497671693563,0.0,1.0,0.0
5,191,-1098.9310302734375,4.5004987716674805,1.0358637571334839,-0.02726627327501774,-0.0004978110664524138,-4.73630428314209,0.0023363158106803894,3.530876711010933e-05,-9.75346565246582,0.0526169091463089,-1.1118299961090088,-0.00814837496727705,-0.02465820126235485,0.523335874080658,-0.003997802734375,0.0,1.0,0.0
5,190,-1071.8902587890625,4.500114440917969,0.5942402482032776,0.004982154816389084,9.152545680990443e-05,-5.190023899078369,-0.0006394926458597183,-9.446375770494342e-06,-9.747934341430664,0.0038618973921984434,-0.35240817070007324,-0.0025300595443695784,-0.0020751948468387127,0.18834929168224335,-0.0013732908992096782,0.0,0.0,0.0
5,189,-1073.919921875,4.500852108001709,0.7346099615097046,-0.03985590860247612,-0.0007322036544792354,-5.392146587371826,0.00512339174747467,7.557100616395473e-05,-9.747695922851562,0.07949332892894745,-1.6674422025680542,-0.012024602852761745,-0.0418701209127903,0.8851173520088196,-0.006835937965661287,0.0,1.0,0.0
6,199,-1171.896484375,4.500070571899414,0.7978623509407043,0.003402529051527381,6.213843880686909e-05,-4.796723365783691,-0.0002871733158826828,-4.313187673687935e-06,-9.75189208984375,0.0026118478272110224,-0.23628656566143036,-0.001716479891911149,-0.00128173828125,0.11642739921808243,-0.0008544920710846782,0.0,0.0,0.0
6,198,-1173.9306640625,4.500519752502441,0.9407249093055725,-0.027219755575060844,-0.0004971075104549527,-4.931344032287598,0.0022998079657554626,3.450550138950348e-05,-9.751462936401367,0.052633851766586304,-1.1116935014724731,-0.008139584213495255,-0.02572631649672985,0.5455681681632996,-0.004150391090661287,0.0,1.0,0.0
6,197,-1121.8963623046875,4.5000762939453125,0.5962141752243042,0.003390825819224119,6.196038884809241e-05,-5.186702251434326,-0.0002915039658546448,-4.417961463332176e-06,-9.748029708862305,0.0026065390557050705,-0.23606468737125397,-0.0017123124562203884,-0.0014038084773346782,0.12587355077266693,-0.00091552734375,0.0,0.0,0.0
6,195,-1146.8961181640625,4.500078201293945,0.5433650612831116,0.0033879242837429047,6.191633292473853e-05,-5.284172058105469,-0.00029015354812145233,-4.405592335388064e-06,-9.746980667114258,0.002605229616165161,-0.23601074516773224,-0.0017112825298681855,-0.0014343259390443563,0.12822996079921722,-0.0009460448054596782,0.0,0.0,0.0
6,194,-1096.8961181640625,4.500079154968262,0.489541232585907,0.003385034156963229,6.187260441947728e-05,-5.3816328048706055,-0.00028901267796754837,-4.372850526124239e-06,-9.746074676513672,0.0026039329823106527,-0.2359575480222702,-0.0017102620331570506,-0.0014648438664153218,0.1305932104587555,-0.0009460448054596782,0.0,0.0,0.0
6,193,-1123.9298095703125,4.500563144683838,0.7387463450431824,-0.027126017957925797,-0.0004956831107847393,-5.32130765914917,0.002335198223590851,3.534369170665741e-05,-9.747600555419922,0.05266669765114784,-1.1113924980163574,-0.008121670223772526,-0.02783203125,0.5900258421897888,-0.004516602028161287,0.0,1.0,0.0
6,192,-1148.9296875,4.500574588775635,0.6858153939247131,-0.027102775871753693,-0.0004953306633979082,-5.418774127960205,0.002324208617210388,3.5244738683104515e-05,-9.746646881103516,0.052675213664770126,-1.1113240718841553,-0.008117242716252804,-0.0283508263528347,0.6011453866958618,-0.004608153831213713,0.0,1.0,0.0
6,191,-1098.9293212890625,4.500585556030273,0.631909966468811,-0.027079619467258453,-0.0004949808353558183,-5.516230583190918,0.0023156404495239258,3.498280420899391e-05,-9.745645523071289,0.052683811634778976,-1.1112592220306396,-0.008112865500152111,-0.02886962704360485,0.6122581362724304,-0.004669188521802425,0.0,1.0,0.0
6,190,-1071.8887939453125,4.500131607055664,0.14386947453022003,0.004931286908686161,9.077508730115369e-05,-5.9695048332214355,-0.0006291083991527557,-9.252107702195644e-06,-9.740114212036133,0.0038386548403650522,-0.35149869322776794,-0.0025116566102951765,-0.0024108882062137127,0.21661943197250366,-0.0015869139460846782,0.0,0.0,0.0
6,189,-1073.916748046875,4.500983238220215,0.2832704186439514,-0.039448220282793045,-0.0007262006984092295,-6.171609878540039,0.005044043064117432,7.401686161756516e-05,-9.739875793457031,0.07966925203800201,-1.6666291952133179,-0.011945540085434914,-0.048248291015625,1.0183197259902954,-0.007904053665697575,0.0,1.0,0.0
7,199,-1171.8956298828125,4.500088214874268,0.1461363136768341,0.003367580706253648,6.160712655400857e-05,-5.966189384460449,-0.00029301736503839493,-4.487810656428337e-06,-9.740161895751953,0.0025960293132811785,-0.23563054203987122,-0.0017040485981851816,-0.001617431640625,0.14484098553657532,-0.001068115234375,0.0,0.0,0.0
7,198,-1173.92822265625,4.500650882720947,0.28801050782203674,-0.026939740404486656,-0.0004928570124320686,-6.100764751434326,0.00234898179769516,3.59024852514267e-05,-9.739828109741211,0.05273408070206642,-1.1108310222625732,-0.008086096495389938,-0.03204345703125,0.6787704825401306,-0.005187987349927425,0.0,1.0,0.0
7,197,-1121.895263671875,4.500033378601074,-0.07884734869003296,-0.000744154560379684,-0.002387230983003974,-4.787723064422607,-0.004708213731646538,-0.4097062945365906,69.46902465820312,-0.14550933241844177,-0.2607739269733429,0.013054415583610535,4.384285057312809e-05,0.15632936358451843,-0.001007080078125,0.0,0.0,0.0
7,195,-1146.895263671875,4.500242710113525,-0.12048698216676712,-0.0005607688217423856,0.013089981861412525,-4.16343355178833,0.018338574096560478,1.547721266746521,62.428951263427734,0.2605341076850891,-0.1797589659690857,-0.0361250601708889,-0.0025634765625,0.15811887383460999,-0.0013732908992096782,0.0,0.0,0.0
7,194,-1096.895263671875,4.499994277954102,-0.15651695430278778,-0.00046562403440475464,-0.014924990013241768,-3.602515697479248,0.009514478966593742,-2.801497220993042,56.0917854309082,-0.3296242654323578,-0.15767802298069,0.044335074722766876,0.0007345277699641883,0.15970347821712494,-0.0009155274019576609,0.0,0.0,0.0
7,193,-1123.92626953125,4.5016865730285645,0.020936354994773865,-0.006894564256072044,0.011331653222441673,-4.2025146484375,6.527262210845947,4.9660725593566895,88.11116027832031,6.336981773376465,-0.24502037465572357,-1.5963237285614014,-0.08795163780450821,0.7810184359550476,-0.01632690243422985,0.0,1.0,0.0
7,192,-1148.92626953125,4.501180171966553,-0.015153693966567516,0.04372771456837654,-0.0758727639913559,-3.4469516277313232,5.062227725982666,-8.720441818237305,75.55630493164062,-2.5413365364074707,1.4155848026275635,1.1535375118255615,-0.0625305026769638,0.7668662667274475,-0.004455565940588713,0.0,1.0,0.0
7,191,-1098.9268798828125,4.502296447753906,-0.048703230917453766,0.12999595701694489,-0.013171181082725525,-2.8800182342529297,8.626824378967285,6.270158290863037,56.69334030151367,6.030272960662842,4.2378034591674805,-1.2922817468643188,-0.1228332445025444,0.724464476108551,-0.018157958984375,0.0,1.0,0.0
7,190,-1071.907958984375,4.498989105224609,-0.14327560365200043,0.10923638194799423,-0.04309313744306564,0.2529453933238983,-0.20084306597709656,-0.2917170524597168,0.7282212376594543,1.28312349319458,8.342599868774414,0.06493718177080154,-0.0732726976275444,-0.7150251269340515,-0.013214111328125,0.0,0.0,0.0
7,189,-1073.9139404296875,4.497734069824219,0.02928905375301838,-0.06593594700098038,0.0019401764729991555,0.23307134211063385,1.5066437721252441,-2.126588821411133,0.3150254487991333,-1.4068288803100586,-3.0506441593170166,0.055386535823345184,0.014823820441961288,1.183876633644104,-0.006134033203125,0.0,1.0,0.0
8,199,-1171.8994140625,4.495805740356445,-0.1602036952972412,0.0052634901367127895,-0.11648021638393402,0.07712861150503159,0.06471220403909683,22.395183563232422,3.2095956802368164,1.8131657838821411,2.149139404296875,0.03454243391752243,-0.02075195126235485,-9.56226431299001e-05,-0.0010986328125,0.0,0.0,0.0
8,198,-1173.9248046875,4.492133617401123,-0.01309963222593069,-0.02183028683066368,0.07236267626285553,0.15043580532073975,-5.448005199432373,9.629475593566895,0.008051097393035889,-1.237259030342102,-0.09526024013757706,-1.1877944469451904,0.1872936189174652,0.913947582244873,0.011688513681292534,0.0,1.0,0.0
8,197,-1121.9012451171875,4.4957756996154785,-0.15403182804584503,0.003395149251446128,-0.03694980964064598,0.18343369662761688,-0.04188348352909088,1.3402190208435059,2.0416126251220703,1.4889500141143799,1.424039363861084,-0.009566154330968857,-0.0874023288488388,-0.06744128465652466,-0.0008850097074173391,0.0,0.0,0.0
8,195,-1146.9017333984375,4.495713233947754,-0.15198761224746704,0.003013262990862131,-0.04072273150086403,0.20034322142601013,-0.0381886251270771,-0.3772921860218048,1.6909525394439697,1.1661388874053955,1.2656593322753906,0.013919549994170666,-0.0990600511431694,-0.08010445535182953,-0.0007324219332076609,0.0,0.0,0.0
8,194,-1096.9019775390625,4.495776653289795,-0.14980819821357727,0.002646458800882101,-0.028654195368289948,0.2142879068851471,-0.036680418998003006,1.2068536281585693,1.3944685459136963,1.1802762746810913,1.1184122562408447,-0.008900255896151066,-0.1108703538775444,-0.09127864241600037,-0.0008239744929596782,0.0,0.0,0.0
8,193,-1123.925048828125,4.489818096160889,-0.004524574149399996,-0.016700182110071182,0.07589095085859299,0.22283512353897095,0.07515791803598404,1.9554287195205688,1.1520713567733765,-0.09778141230344772,-0.14029839634895325,-0.8261573314666748,0.23737403750419617,0.9187765121459961,-0.010498045943677425,0.0,1.0,0.0
8,192,-1148.9254150390625,4.489092826843262,-0.0020275877323001623,-0.0157944206148386,0.05306179076433182,0.2314993292093277,0.09057614952325821,-2.2829160690307617,0.866420567035675,-2.5609538555145264,-0.17071613669395447,-0.06200840324163437,0.2629862129688263,0.9204908609390259,-0.010711669921875,0.0,1.0,0.0
8,191,-1098.92529296875,4.48885440826416,0.0005499648978002369,-0.01527244783937931,0.07143983989953995,0.23700007796287537,0.052197277545928955,1.837804913520813,0.5500748753547668,-0.11387888342142105,-0.18327267467975616,-0.7394539713859558,0.26412466168403625,0.9223213791847229,-0.01806640625,0.0,1.0,0.0
8,190,-1071.91162109375,4.499007701873779,-0.11838226020336151,0.09559060633182526,-0.011533822864294052,0.24940308928489685,-0.11879727244377136,0.8088430166244507,-0.43580830097198486,0.5245645046234131,2.4477109909057617,-0.03475236892700195,-0.1480407863855362,-1.1492339372634888,-0.010650633834302425,0.0,0.949999988079071,0.0009865086758509278
8,189,-1073.9052734375,4.496012210845947,0.06957988440990448,0.036153290420770645,0.01377760898321867,0.20695926249027252,0.8855741620063782,1.5844066143035889,-0.5371421575546265,0.8681371808052063,-1.2118438482284546,-0.3811866343021393,0.01850922219455242,1.3612020015716553,-0.0253906212747097,0.0,1.0,0.0
9,199,-1171.9012451171875,4.4957756996154785,-0.15403182804584503,0.003395149251446128,-0.03694980964064598,0.18343369662761688,-0.04188348352909088,1.3402190208435059,2.0416126251220703,1.4889500141143799,1.424039363861084,-0.009566154330968857,-0.0874023288488388,-0.06744128465652466,-0.0008850097074173391,0.0,0.0,0.0
9,198,-1173.925048828125,4.489818096160889,-0.004524574149399996,-0.016700182110071182,0.07589095085859299,0.22283512353897095,0.07515791803598404,1.9554287195205688,1.1520713567733765,-0.09778141230344772,-0.14029839634895325,-0.8261573314666748,0.23737403750419617,0.9187765121459961,-0.010498045943677425,0.0,1.0,0.0
9,197,-1121.9024658203125,4.49576997756958,-0.14515212178230286,0.0019941821228712797,-0.021454982459545135,0.23421208560466766,-0.03198161721229553,1.1084672212600708,0.8794307708740234,0.9139304757118225,0.8488175272941589,-0.0085910614579916,-0.1288757175207138,-0.10955622792243958,-0.0007324218167923391,0.0,0.0,0.0
9,195,-1146.9027099609375,4.495706558227539,-0.14272063970565796,0.0017061283579096198,-0.025493072345852852,0.2407633513212204,-0.028805376961827278,-0.40380898118019104,0.6551265716552734,0.648091197013855,0.7259949445724487,0.012338785454630852,-0.1353759765625,-0.11681672185659409,-0.0006103515042923391,0.0,0.0,0.0
9,194,-1096.9029541015625,4.495757579803467,-0.14024558663368225,0.0014284487115219235,-0.015207742340862751,0.2455049604177475,-0.027767963707447052,1.0285329818725586,0.47416090965270996,0.6852818131446838,0.6125999093055725,-0.008550058118999004,-0.1422118991613388,-0.12292973697185516,-0.0006713866023346782,0.0,0.0,0.0
9,193,-1123.9254150390625,4.488023281097412,0.005859260447323322,-0.014104563742876053,0.06738802045583725,0.2418564409017563,0.04365956410765648,1.7464905977249146,0.1281946897506714,-0.09442266076803207,-0.22402112185955048,-0.6708055138587952,0.2893276810646057,0.9266858696937561,-0.02459716610610485,0.0,1.0,0.0
9,192,-1148.9254150390625,4.4874467849731445,0.008551483042538166,-0.01343302708119154,0.046807751059532166,0.24188485741615295,0.06715366244316101,-2.0580270290374756,0.002841651439666748,-2.299448251724243,-0.24898166954517365,0.01076918002218008,0.3123238682746887,0.9291925430297852,-0.02413940615952015,0.0,1.0,0.0
9,191,-1098.9254150390625,4.487311840057373,0.01124523114413023,-0.013000446371734142,0.06358643621206284,0.24027268588542938,0.043258070945739746,1.6778684854507446,-0.16121715307235718,-0.05560179054737091,-0.25673574209213257,-0.6139774322509766,0.3128785490989685,0.9317538738250732,-0.0302734337747097,0.0,1.0,0.0
9,190,-1071.909423828125,4.498970985412598,-0.10874534398317337,0.09143682569265366,-0.004018829204142094,0.22710543870925903,-0.09353309869766235,0.734459638595581,-0.6062477827072144,0.25684699416160583,0.6940496563911438,-0.03807114064693451,-0.1597595065832138,-1.201812744140625,-0.009918213821947575,0.0,0.949999988079071,0.0009865086758509278
9,189,-1073.9012451171875,4.495656490325928,0.0810825303196907,0.06712344288825989,0.011080482043325901,0.18499547243118286,0.6967261433601379,1.5274505615234375,-0.5721345543861389,0.8904228806495667,-0.6056771874427795,-0.3189522624015808,0.021239541471004486,1.3943352699279785,-0.02853393368422985,0.0,1.0,0.0
10,199,-1171.9027099609375,4.495706558227539,-0.14272063970565796,0.0017061283579096198,-0.025493072345852852,0.2407633513212204,-0.028805376961827278,-0.40380898118019104,0.6551265716552734,0.648091197013855,0.7259949445724487,0.012338785454630852,-0.1353759765625,-0.11681672185659409,-0.0006103515042923391,0.0,0.0,0.0
10,198,-1173.9254150390625,4.4874467849731445,0.008551483042538166,-0.01343302708119154,0.046807751059532166,0.24188485741615295,0.06715366244316101,-2.0580270290374756,0.002841651439666748,-2.299448251724243,-0.24898166954517365,0.01076918002218008,0.3123238682746887,0.9291925430297852,-0.02413940615952015,0.0,1.0,0.0
10,197,-1121.9031982421875,4.495676040649414,-0.13271674513816833,0.0007270845817402005,-0.014270996674895287,0.2502697706222534,-0.021289853379130363,-0.44692960381507874,0.02027750015258789,0.26483386754989624,0.31433409452438354,0.010970483534038067,-0.1541747897863388,-0.13522407412528992,-0.0005187987699173391,0.0,0.0,0.0
10,195,-1146.9033203125,4.495721340179443,-0.13021498918533325,0.0005203131004236639,-0.0051570190116763115,0.24941982328891754,-0.020677147433161736,0.9113977551460266,-0.08499473333358765,0.325049489736557,0.22942711412906647,-0.008965913206338882,-0.1574401706457138,-0.1375121921300888,-0.0005798339261673391,0.0,0.0,0.0
10,194,-1096.9033203125,4.4956560134887695,-0.12773506343364716,0.0003388230106793344,-0.009877189993858337,0.24751073122024536,-0.018149008974432945,-0.4720171093940735,-0.19090920686721802,0.1151445135474205,0.14963892102241516,0.010414290241897106,-0.1585998386144638,-0.13900800049304962,-0.00048828122089616954,0.0,0.0,0.0
10,193,-1123.9254150390625,4.486246109008789,0.01921764388680458,-0.011133624240756035,0.04045823588967323,0.2304200828075409,0.07148468494415283,-1.9506815671920776,-0.3945887088775635,-2.0882794857025146,-0.29153549671173096,0.0750110000371933,0.35567834973335266,0.9402369856834412,-0.034027099609375,0.0,1.0,0.0
10,192,-1148.9254150390625,4.486199855804443,0.021801909431815147,-0.010604336857795715,0.05646077170968056,0.22563567757606506,0.05292873829603195,1.6002535820007324,-0.478440523147583,0.05520927160978317,-0.2889396548271179,-0.5250533819198608,0.355124294757843,0.9431261420249939,-0.039306640625,0.0,1.0,0.0
10,191,-1098.9251708984375,4.48578405380249,0.024337423965334892,-0.009839117527008057,0.037230465561151505,0.2207224816083908,0.07652193307876587,-1.9230306148529053,-0.49131959676742554,-1.9992506504058838,-0.2957119345664978,0.10512743890285492,0.3751174509525299,0.946104109287262,-0.03790283203125,0.0,1.0,0.0
10,190,-1071.904541015625,4.498870849609375,-0.0984303280711174,0.08750275522470474,-0.002524761250242591,0.1940462291240692,-0.0696718692779541,-0.4239758551120758,-0.6812497973442078,-0.09896830469369888,-0.8987787961959839,0.05397581309080124,-0.1615295559167862,-1.1863081455230713,-0.00903320126235485,0.0,0.949999988079071,-4.236317181494087e-05
10,189,-1073.8966064453125,4.495345115661621,0.09085799753665924,0.09645724296569824,-0.0074806129559874535,0.15836554765701294,0.5180262327194214,-1.6085091829299927,-0.4994511604309082,-0.8937293291091919,-0.010749604552984238,0.23857566714286804,0.03069860115647316,1.4061105251312256,-0.02734375,0.0,1.0,0.0
11,199,-1171.9033203125,4.495721340179443,-0.13021498918533325,0.0005203131004236639,-0.0051570190116763115,0.24941982328891754,-0.020677147433161736,0.9113977551460266,-0.08499473333358765,0.325049489736557,0.22942711412906647,-0.008965913206338882,-0.1574401706457138,-0.1375121921300888,-0.0005798339261673391,0.0,0.0,0.0
11,198,-1173.9254150390625,4.486199855804443,0.021801909431815147,-0.010604336857795715,0.05646077170968056,0.22563567757606506,0.05292873829603195,1.6002535820007324,-0.478440523147583,0.05520927160978317,-0.2889396548271179,-0.5250533819198608,0.355124294757843,0.9431261420249939,-0.039306640625,0.0,1.0,0.0
11,197,-1121.9033203125,4.4956769943237305,-0.12049911171197891,-0.00014324815128929913,0.0021471597719937563,0.23729857802391052,-0.015119737014174461,0.8314710259437561,-0.4039764404296875,0.07043851166963577,-0.052922751754522324,-0.00955014955252409,-0.1610412299633026,-0.13931536674499512,-0.0005798339261673391,0.0,0.0,0.0
11,195,-1146.9033203125,4.495611667633057,-0.11817649751901627,-0.00027222628705203533,-0.0030670349951833487,0.2326650619506836,-0.012897813692688942,-0.5214194655418396,-0.46335160732269287,-0.11486326903104782,-0.11061528325080872,0.009541649371385574,-0.1599120944738388,-0.13821570575237274,-0.00048828122089616954,0.0,0.0,0.0
11,194,-1096.9033203125,4.495654582977295,-0.11590499430894852,-0.0004004022339358926,0.004933012183755636,0.22766950726509094,-0.012817595154047012,0.8000047206878662,-0.49955546855926514,-0.024868370965123177,-0.16258247196674347,-0.009818892925977707,-0.15966796875,-0.1365969479084015,-0.0005798339261673391,0.0,0.0,0.0
11,193,-1123.9251708984375,4.485429286956787,0.031589049845933914,-0.007815388031303883,0.04965406283736229,0.20381273329257965,0.06303200125694275,1.566955804824829,-0.5912333726882935,0.18068943917751312,-0.27743977308273315,-0.45670729875564575,0.391323059797287,0.9546623229980469,-0.0457763671875,0.0,1.0,0.0
11,192,-1148.925048828125,4.485087871551514,0.03387603536248207,-0.006973030045628548,0.0307400394231081,0.19808904826641083,0.08423580229282379,-1.8914023637771606,-0.5723685026168823,-1.840994119644165,-0.2741651237010956,0.15991267561912537,0.40973320603370667,0.95740807056427,-0.043853759765625,0.0,1.0,0.0
11,191,-1098.925048828125,4.485147953033447,0.036090314388275146,-0.006312443874776363,0.04634072259068489,0.1920420378446579,0.06605862081050873,1.5600683689117432,-0.604701042175293,0.24672819674015045,-0.25854718685150146,-0.42875751852989197,0.4072635769844055,0.9600035548210144,-0.048187255859375,0.0,1.0,0.0
11,190,-1071.89794921875,4.498867511749268,-0.090032197535038,0.08475282788276672,0.007783412933349609,0.16067910194396973,-0.04580765962600708,0.6206004619598389,-0.6494790315628052,-0.14788156747817993,-1.944244384765625,-0.044104695320129395,-0.1548462063074112,-1.107938528060913,-0.0093994140625,0.0,0.949999988079071,0.0005603058962151408
11,189,-1073.891845703125,4.495671272277832,0.09649112820625305,0.11690668016672134,0.005146891809999943,0.1345534324645996,0.3403216600418091,1.4822005033493042,-0.46028345823287964,0.9908728003501892,0.44324323534965515,-0.22141817212104797,0.018649552017450333,1.3922998905181885,-0.0295105017721653,0.0,1.0,0.0
12,199,-1171.9033203125,4.4956769943237305,-0.12049911171197891,-0.00014324815128929913,0.0021471597719937563,0.23729857802391052,-0.015119737014174461,0.8314710259437561,-0.4039764404296875,0.07043851166963577,-0.052922751754522324,-0.00955014955252409,-0.1610412299633026,-0.13931536674499512,-0.0005798339261673391,0.0,0.0,0.0
12,198,-1173.9251708984375,4.485429286956787,0.031589049845933914,-0.007815388031303883,0.04965406283736229,0.20381273329257965,0.06303200125694275,1.566955804824829,-0.5912333726882935,0.18068943917751312,-0.27743977308273315,-0.45670729875564575,0.391323059797287,0.9546623229980469,-0.0457763671875,0.0,1.0,0.0
12,197,-1121.9031982421875,4.495631694793701,-0.1115318238735199,-0.00061546650249511,0.007235848810523748,0.21657975018024445,-0.010782596655189991,0.7740090489387512,-0.5655944347381592,-0.10209314525127411,-0.2542210519313812,-0.010066669434309006,-0.1566161960363388,-0.1319592446088791,-0.0005798339261673391,0.0,0.0,0.0
12,195,-1146.903076171875,4.495567798614502,-0.10943519324064255,-0.0007035575690679252,0.0015807553427293897,0.21062977612018585,-0.008809106424450874,-0.5655093789100647,-0.5949974060058594,-0.26955315470695496,-0.2943926453590393,0.009003104642033577,-0.1539306640625,-0.12899494171142578,-0.0005187987699173391,0.0,0.0,0.0
12,194,-1096.9029541015625,4.495610237121582,-0.10740035772323608,-0.0007934989407658577,0.009103205986320972,0.20456677675247192,-0.008994136936962605,0.7522450685501099,-0.6062999367713928,-0.1637728065252304,-0.3299332857131958,-0.010262088850140572,-0.1522826999425888,-0.12570279836654663,-0.0006103515042923391,0.0,0.0,0.0
12,193,-1123.9249267578125,4.484925746917725,0.04030078649520874,-0.004766168538480997,0.04309847578406334,0.18028579652309418,0.06801537424325943,1.559707522392273,-0.6003141403198242,0.31599152088165283,-0.23279570043087006,-0.40480324625968933,0.42178791761398315,0.9648597836494446,-0.0501403771340847,0.0,1.0,0.0
12,192,-1148.9246826171875,4.48464298248291,0.042296066880226135,-0.003898691153153777,0.024289390072226524,0.17462259531021118,0.08674773573875427,-1.8809086084365845,-0.5663201212882996,-1.698563575744629,-0.22289235889911652,0.20648698508739471,0.43877431750297546,0.967093288898468,-0.04779052734375,0.0,1.0,0.0
12,191,-1098.9248046875,4.484756946563721,0.04421413317322731,-0.003222753992304206,0.03989812359213829,0.16875338554382324,0.06759371608495712,1.5608733892440796,-0.586920976638794,0.38456130027770996,-0.20237499475479126,-0.3834153413772583,0.43492645025253296,0.9691150188446045,-0.0516967698931694,0.0,1.0,0.0
12,190,-1071.891845703125,4.498832702636719,-0.0845782458782196,0.08323775231838226,0.010334925726056099,0.13574367761611938,-0.03173425793647766,0.5916731953620911,-0.5982518196105957,-0.23069730401039124,-2.467848539352417,-0.045083802193403244,-0.1445617526769638,-1.0163252353668213,-0.009460448287427425,0.0,0.949999988079071,0.0005949801998212934
12,189,-1073.8880615234375,4.495927333831787,0.09870509803295135,0.12811534106731415,0.002948938636109233,0.11816055327653885,0.23435354232788086,1.4773986339569092,-0.40009021759033203,1.0346205234527588,0.6988248825073242,-0.1980176568031311,0.014123059809207916,1.368086814880371,-0.0279540978372097,0.0,1.0,0.0
13,199,-1171.9031982421875,4.495631694793701,-0.1115318238735199,-0.00061546650249511,0.007235848810523748,0.21657975018024445,-0.010782596655189991,0.7740090489387512,-0.5655944347381592,-0.10209314525127411,-0.2542210519313812,-0.010066669434309006,-0.1566161960363388,-0.1319592446088791,-0.0005798339261673391,0.0,0.0,0.0
13,198,-1173.9249267578125,4.484925746917725,0.04030078649520874,-0.004766168538480997,0.04309847578406334,0.18028579652309418,0.06801537424325943,1.559707522392273,-0.6003141403198242,0.31599152088165283,-0.23279570043087006,-0.40480324625968933,0.42178791761398315,0.9648597836494446,-0.0501403771340847,0.0,1.0,0.0
13,197,-1121.9027099609375,4.4955902099609375,-0.10352149605751038,-0.0009386718738824129,0.010594612918794155,0.1920374184846878,-0.007413648068904877,0.7342624664306641,-0.6274402141571045,-0.21178224682807922,-0.3914656639099121,-0.010423225350677967,-0.1469421535730362,-0.11816226691007614,-0.0006408690824173391,0.0,0.0,0.0
13,195,-1146.902587890625,4.4955267906188965,-0.10167907178401947,-0.0009949741652235389,0.004557696171104908,0.18565842509269714,-0.0056302291341125965,-0.6036916971206665,-0.6378993391990662,-0.36649656295776367,-0.4179161489009857,0.008742844685912132,-0.143280029296875,-0.11397536098957062,-0.00054931640625,0.0,0.0,0.0
13,194,-1096.9024658203125,4.495571613311768,-0.09990012645721436,-0.0010551157174631953,0.01174880750477314,0.17932605743408203,-0.006014155223965645,0.7191111445426941,-0.6332367658615112,-0.24817955493927002,-0.44057586789131165,-0.010530385188758373,-0.1407775729894638,-0.1095835492014885,-0.00067138671875,0.0,0.0,0.0
13,193,-1123.924560546875,4.484635353088379,0.04782741516828537,-0.0016942220972850919,0.036768026649951935,0.15768134593963623,0.06634189188480377,1.5660604238510132,-0.5637019872665405,0.45523080229759216,-0.16819757223129272,-0.3652121126651764,0.4466826021671295,0.9727144837379456,-0.0528869666159153,0.0,1.0,0.0
13,192,-1148.9246826171875,4.484397888183594,0.04952407628297806,-0.0008578812121413648,0.017969602718949318,0.15247109532356262,0.08363408595323563,-1.8798424005508423,-0.5210250616073608,-1.5646498203277588,-0.1548818200826645,0.24485020339488983,0.4623301029205322,0.9742717742919922,-0.0501708947122097,0.0,1.0,0.0
13,191,-1098.9244384765625,4.484554767608643,0.05114521086215973,-0.00022125247051008046,0.03367624804377556,0.14711442589759827,0.06366287171840668,1.5706645250320435,-0.5356669425964355,0.5236781239509583,-0.13221503794193268,-0.3486732840538025,0.45709145069122314,0.9755968451499939,-0.0537414513528347,0.0,1.0,0.0
13,190,-1071.88525390625,4.498803615570068,-0.08011550456285477,0.082222580909729,0.011949778534471989,0.11319009214639664,-0.01998916268348694,0.5685716867446899,-0.5343906879425049,-0.28098157048225403,-2.7720580101013184,-0.045731354504823685,-0.1317748874425888,-0.9093576669692993,-0.00952148623764515,0.0,0.949999988079071,0.0006152460700832307
13,189,-1073.88427734375,4.496275424957275,0.09938186407089233,0.1355624794960022,0.0008274304564110935,0.10417163372039795,0.1456335186958313,1.4745829105377197,-0.3453098237514496,1.0776602029800415,0.8790866732597351,-0.18085967004299164,0.007744247559458017,1.335554599761963,-0.02569580078125,0.0,1.0,0.0
14,199,-1171.9027099609375,4.4955902099609375,-0.10352149605751038,-0.0009386718738824129,0.010594612918794155,0.1920374184846878,-0.007413648068904877,0.7342624664306641,-0.6274402141571045,-0.21178224682807922,-0.3914656639099121,-0.010423225350677967,-0.1469421535730362,-0.11816226691007614,-0.0006408690824173391,0.0,0.0,0.0
14,198,-1173.924560546875,4.484635353088379,0.04782741516828537,-0.0016942220972850919,0.036768026649951935,0.15768134593963623,0.06634189188480377,1.5660604238510132,-0.5637019872665405,0.45523080229759216,-0.16819757223129272,-0.3652121126651764,0.4466826021671295,0.9727144837379456,-0.0528869666159153,0.0,1.0,0.0
14,197,-1121.9022216796875,4.495553970336914,-0.09653449803590775,-0.0011463004630059004,0.012615169398486614,0.16667872667312622,-0.004801200702786446,0.7066190838813782,-0.6274193525314331,-0.27445244789123535,-0.4787294864654541,-0.010612852871418,-0.1340637058019638,-0.10015788674354553,-0.000701904296875,0.0,0.0,0.0
14,195,-1146.902099609375,4.495491981506348,-0.09494636207818985,-0.0011779863853007555,0.00626530172303319,0.16041381657123566,-0.0031685922294855118,-0.6349867582321167,-0.6264910101890564,-0.4201990067958832,-0.4945639967918396,0.008679934777319431,-0.1298522651195526,-0.09521966427564621,-0.0006103513878770173,0.0,0.0,0.0
14,194,-1096.9019775390625,4.495537757873535,-0.0934198722243309,-0.001215236377902329,0.013229044154286385,0.15429991483688354,-0.0037249992601573467,0.696374237537384,-0.6113901734352112,-0.29212597012519836,-0.5072872042655945,-0.010654916986823082,-0.126953125,-0.09015166014432907,-0.0007324219332076609,0.0,0.0,0.0
14,193,-1123.9244384765625,4.484512805938721,0.05417846515774727,0.001183006097562611,0.030649930238723755,0.13713350892066956,0.059972330927848816,1.577666163444519,-0.5067065358161926,0.5925018191337585,-0.095368392765522,-0.3343881666660309,0.4661695659160614,0.9777346849441528,-0.0543212816119194,0.0,1.0,0.0
14,192,-1148.92431640625,4.484310150146484,0.05559440329670906,0.0019408552907407284,0.011827136389911175,0.1325107216835022,0.07578492164611816,-1.8822792768478394,-0.46227872371673584,-1.437627911567688,-0.08131371438503265,0.27636146545410156,0.48054710030555725,0.9785475134849548,-0.0513000451028347,0.0,1.0,0.0
14,191,-1098.92431640625,4.48450231552124,0.05693904682993889,0.002494761487469077,0.02767018787562847,0.12776020169258118,0.0553906187415123,1.5843052864074707,-0.47505199909210205,0.6590885519981384,-0.05883721262216568,-0.32137149572372437,0.473954975605011,0.9791485667228699,-0.0546264611184597,0.0,1.0,0.0
14,190,-1071.8773193359375,4.498773097991943,-0.0764840692281723,0.16001670062541962,0.012526269070804119,0.09485657513141632,3.2712996006011963,0.5075033903121948,-0.4094429314136505,-0.3144553303718567,-2.936230182647705,-0.014856597408652306,-0.11758419126272202,-0.7940982580184937,-0.009124754928052425,0.0,0.949999988079071,0.0006215729517862201
14,189,-1073.8792724609375,4.496649265289307,0.0989275723695755,0.2156946361064911,-0.002068748464807868,0.08085724711418152,3.267857551574707,1.3513600826263428,-0.6868190765380859,0.9971054196357727,0.890868067741394,-0.1445937156677246,0.0005813432508148253,1.2994024753570557,-0.02282714657485485,0.0,1.0,0.0
15,199,-1171.9022216796875,4.495553970336914,-0.09653449803590775,-0.0011463004630059004,0.012615169398486614,0.16667872667312622,-0.004801200702786446,0.7066190838813782,-0.6274193525314331,-0.27445244789123535,-0.4787294864654541,-0.010612852871418,-0.1340637058019638,-0.10015788674354553,-0.000701904296875,0.0,0.0,0.0
15,198,-1173.9244384765625,4.484512805938721,0.05417846515774727,0.001183006097562611,0.030649930238723755,0.13713350892066956,0.059972330927848816,1.577666163444519,-0.5067065358161926,0.5925018191337585,-0.095368392765522,-0.3343881666660309,0.4661695659160614,0.9777346849441528,-0.0543212816119194,0.0,1.0,0.0
15,197,-1121.901611328125,4.495523452758789,-0.09054870158433914,-0.0012647421099245548,0.01362607441842556,0.1423056274652481,-0.0027875415980815887,0.6875091791152954,-0.5901515483856201,-0.30260616540908813,-0.5274978280067444,-0.010664177127182484,-0.1195678561925888,-0.07968097925186157,-0.0007629393367096782,0.0,0.0,0.0
15,195,-1146.9014892578125,4.4954633712768555,-0.08920135349035263,-0.0012775909854099154,0.007036580704152584,0.13646189868450165,-0.0012848875485360622,-0.6589493751525879,-0.584372878074646,-0.4420483708381653,-0.5352333188056946,0.008730479516088963,-0.1151428148150444,-0.07433977723121643,-0.0006713866605423391,0.0,0.0,0.0
15,194,-1096.9012451171875,4.495511054992676,-0.08791068941354752,-0.0012972019612789154,0.0138419009745121,0.1308111846446991,-0.001961097586899996,0.6805320382118225,-0.5650714039802551,-0.3068973124027252,-0.5403946042060852,-0.01065669022500515,-0.11209102720022202,-0.06894392520189285,-0.0007934569730423391,0.0,0.0,0.0
15,193,-1123.92431640625,4.484521865844727,0.059439390897750854,0.0037067949306219816,0.02474789135158062,0.11899161338806152,0.05026746168732643,1.5903383493423462,-0.4445895552635193,0.7243446111679077,-0.023214710876345634,-0.30976852774620056,0.4804670810699463,0.9798315763473511,-0.0547180213034153,0.0,1.0,0.0
15,192,-1148.924072265625,4.484347820281982,0.06059768423438072,0.004360924940556288,0.00591858709231019,0.11497599631547928,0.06541299819946289,-1.8829305171966553,-0.4015617072582245,-1.314950704574585,-0.010173305869102478,0.30173808336257935,0.4936183989048004,0.9799476861953735,-0.0514831468462944,0.0,1.0,0.0
15,191,-1098.924072265625,4.484568119049072,0.06169566884636879,0.004809150006622076,0.021891752257943153,0.1108245998620987,0.04482250660657883,1.5973165035247803,-0.41513964533805847,0.7888059020042419,0.010787028819322586,-0.29956871271133423,0.4857293665409088,0.9798315763473511,-0.0546264685690403,0.0,1.0,0.0
15,190,-1071.864013671875,4.498739242553711,-0.07350234687328339,0.29696106910705566,0.011735002510249615,0.07953585684299469,3.4765987396240234,0.26673850417137146,-0.3634542226791382,-0.3480253517627716,-2.9735665321350098,0.017358819022774696,-0.1026611179113388,-0.6752939224243164,-0.007843016646802425,0.0,0.949999988079071,0.0005730155389755964
15,189,-1073.869140625,4.497014999389648,0.09769332408905029,0.35228049755096436,-0.007224079687148333,0.05988257750868797,3.4533472061157227,0.6836221814155579,-0.45343226194381714,0.6316395998001099,0.8514488935470581,-0.029288582503795624,-0.006927489768713713,1.26490318775177,-0.01950073055922985,0.0,1.0,0.0
16,199,-1171.901611328125,4.495523452758789,-0.09054870158433914,-0.0012647421099245548,0.01362607441842556,0.1423056274652481,-0.0027875415980815887,0.6875091791152954,-0.5901515483856201,-0.30260616540908813,-0.5274978280067444,-0.010664177127182484,-0.1195678561925888,-0.07968097925186157,-0.0007629393367096782,0.0,0.0,0.0
16,198,-1173.92431640625,4.484521865844727,0.059439390897750854,0.0037067949306219816,0.02474789135158062,0.11899161338806152,0.05026746168732643,1.5903383493423462,-0.4445895552635193,0.7243446111679077,-0.023214710876345634,-0.30976852774620056,0.4804670810699463,0.9798315763473511,-0.0547180213034153,0.0,1.0,0.0
16,197,-1121.90087890625,4.495499134063721,-0.085494764149189,-0.0013149131555110216,0.013899638317525387,0.11988399922847748,-0.001259148120880127,0.6745988130569458,-0.5360648036003113,-0.30622583627700806,-0.5469990372657776,-0.010621722787618637,-0.104583740234375,-0.058015622198581696,-0.0008239744929596782,0.0,0.0,0.0
16,195,-1146.90087890625,4.495439529418945,-0.08436622470617294,-0.0013134985929355025,0.0071331411600112915,0.11462444812059402,0.0001414562575519085,-0.6766496896743774,-0.525955080986023,-0.4414011538028717,-0.5486668348312378,0.008845354430377483,-0.10015869140625,-0.052524153143167496,-0.000732421875,0.0,0.0,0.0
16,194,-1096.900634765625,4.495489120483398,-0.08328819274902344,-0.001319766161032021,0.01383143849670887,0.10957399755716324,-0.0006267568096518517,0.6698297262191772,-0.5050450563430786,-0.3012971580028534,-0.5481616854667664,-0.01058406475931406,-0.097137451171875,-0.04706000164151192,-0.0008544920710846782,0.0,0.0,0.0
16,193,-1123.9239501953125,4.484637260437012,0.06372390687465668,0.005789142567664385,0.01908157579600811,0.1032009944319725,0.038526859134435654,1.6023088693618774,-0.38938820362091064,0.8498112559318542,0.04242049530148506,-0.28982818126678467,0.4897865355014801,0.9791827201843262,-0.0543212816119194,0.0,1.0,0.0
16,192,-1148.923828125,4.484484672546387,0.06465812772512436,0.0063245403580367565,0.0002647304499987513,0.0997474268078804,0.05353977903723717,-1.8816845417022705,-0.3453567624092102,-1.1968876123428345,0.053248364478349686,0.3222868740558624,0.5017578601837158,0.9786636233329773,-0.0509033165872097,0.0,1.0,0.0
16,191,-1098.923828125,4.484726905822754,0.0655406191945076,0.006657702382653952,0.016353873535990715,0.09615608304738998,0.03331620246171951,1.6089143753051758,-0.35913437604904175,0.9113803505897522,0.07184796035289764,-0.28167617321014404,0.4926433861255646,0.9779327511787415,-0.0538635216653347,0.0,1.0,0.0
16,190,-1071.84521484375,4.498713970184326,-0.07107467204332352,0.43745818734169006,0.010770771652460098,0.06604743748903275,3.5224497318267822,0.05429629236459732,-0.31890422105789185,-0.36121270060539246,-2.896272897720337,0.03901277855038643,-0.0877990648150444,-0.5579854249954224,-0.006317138206213713,0.0,0.949999988079071,0.0005353134474717081
16,189,-1073.8533935546875,4.497415065765381,0.09595424681901932,0.49148258566856384,-0.011623508296906948,0.046299926936626434,3.4796385765075684,0.10581128299236298,-0.2883646488189697,0.3522181212902069,0.8221558928489685,0.062123723328113556,-0.01654052548110485,1.2316128015518188,-0.016204833984375,0.0,1.0,0.0
17,199,-1171.90087890625,4.495499134063721,-0.085494764149189,-0.0013149131555110216,0.013899638317525387,0.11988399922847748,-0.001259148120880127,0.6745988130569458,-0.5360648036003113,-0.30622583627700806,-0.5469990372657776,-0.010621722787618637,-0.104583740234375,-0.058015622198581696,-0.0008239744929596782,0.0,0.0,0.0
17,198,-1173.9239501953125,4.484637260437012,0.06372390687465668,0.005789142567664385,0.01908157579600811,0.1032009944319725,0.038526859134435654,1.6023088693618774,-0.38938820362091064,0.8498112559318542,0.04242049530148506,-0.28982818126678467,0.4897865355014801,0.9791827201843262,-0.0543212816119194,0.0,1.0,0.0
17,197,-1121.9002685546875,4.495479583740234,-0.08127845823764801,-0.0013134689070284367,0.013656269758939743,0.09989152103662491,-9.025679901242256e-05,0.6663933396339417,-0.4726976156234741,-0.29301151633262634,-0.5446628332138062,-0.010531456209719181,-0.08987424522638321,-0.03613169863820076,-0.0008544921875,0.0,0.0,0.0
17,195,-1146.900146484375,4.495421409606934,-0.08034317195415497,-0.001301398384384811,0.006760682910680771,0.09527011960744858,0.0012070522643625736,-0.6895586848258972,-0.46214014291763306,-0.42553043365478516,-0.5418710112571716,0.00900063943117857,-0.0856017917394638,-0.03070169873535633,-0.0007629393367096782,0.0,0.0,0.0
17,194,-1096.9000244140625,4.495472431182861,-0.07945136725902557,-0.001297755166888237,0.01339360885322094,0.09086386114358902,0.0003643217496573925,0.6632925868034363,-0.4406258463859558,-0.28203055262565613,-0.5372366905212402,-0.010466762818396091,-0.0827941820025444,-0.025333169847726822,-0.0008850098238326609,0.0,0.0,0.0
17,193,-1123.924072265625,4.484836101531982,0.06716064363718033,0.007407086435705423,0.013682669959962368,0.08961228281259537,0.02727336250245571,1.6148723363876343,-0.3341063857078552,0.9699978232383728,0.09857764095067978,-0.2739063799381256,0.49434974789619446,0.9761295914649963,-0.053253162652254105,0.0,1.0,0.0
17,192,-1148.9237060546875,4.484701156616211,0.06790401041507721,0.007822902873158455,-0.005116574466228485,0.08665575832128525,0.0415816456079483,-1.8799245357513428,-0.29565244913101196,-1.0842434167861938,0.10660510510206223,0.33917561173439026,0.5051947832107544,0.975077748298645,-0.0496826134622097,0.0,1.0,0.0
17,191,-1098.923828125,4.484962463378906,0.0686025619506836,0.00803685188293457,0.011077361181378365,0.08354225009679794,0.021394900977611542,1.6193935871124268,-0.31135082244873047,1.026751160621643,0.12233690172433853,-0.26677051186561584,0.49492695927619934,0.9738551378250122,-0.052520751953125,0.0,1.0,0.0
17,190,-1071.8209228515625,4.498701095581055,-0.06911811977624893,0.5777968168258667,0.010200452990829945,0.054292187094688416,3.495126962661743,-0.01126416027545929,-0.27765408158302307,-0.34741878509521484,-2.737636089324951,0.046406298875808716,-0.0736083835363388,-0.44588837027549744,-0.004638671875,0.0,0.949999988079071,0.0004914694000035524
17,189,-1073.8319091796875,4.497853755950928,0.09392448514699936,0.6296069622039795,-0.013802258297801018,0.037516966462135315,3.4315407276153564,-0.03837244585156441,-0.1855596899986267,0.32771551609039307,0.7935099601745605,0.08084698021411896,-0.0289001427590847,1.199435830116272,-0.013214111328125,0.0,1.0,0.0
18,199,-1171.9002685546875,4.495479583740234,-0.08127845823764801,-0.0013134689070284367,0.013656269758939743,0.09989152103662491,-9.025679901242256e-05,0.6663933396339417,-0.4726976156234741,-0.29301151633262634,-0.5446628332138062,-0.010531456209719181,-0.08987424522638321,-0.03613169863820076,-0.0008544921875,0.0,0.0,0.0
18,198,-1173.924072265625,4.484836101531982,0.06716064363718033,0.007407086435705423,0.013682669959962368,0.08961228281259537,0.02727336250245571,1.6148723363876343,-0.3341063857078552,0.9699978232383728,0.09857764095067978,-0.2739063799381256,0.49434974789619446,0.9761295914649963,-0.053253162652254105,0.0,1.0,0.0
18,197,-1121.899658203125,4.49546480178833,-0.0777948722243309,-0.0012740243691951036,0.013067596592009068,0.08246840536594391,0.0007477705366909504,0.6617909073829651,-0.4094809293746948,-0.2689049541950226,-0.5264813303947449,-0.010415230877697468,-0.0759582445025444,-0.014739547856152058,-0.0008850098238326609,0.0,0.0,0.0
18,195,-1146.8995361328125,4.4954071044921875,-0.07702705264091492,-0.0012542554177343845,0.006083509884774685,0.07847628742456436,0.001976895146071911,-0.6984086632728577,-0.3992117941379547,-0.3999422490596771,-0.5205121636390686,0.009157320484519005,-0.0719604417681694,-0.009555433876812458,-0.0007934569730423391,0.0,0.0,0.0
18,194,-1096.8994140625,4.495459079742432,-0.07629630714654922,-0.0012435270473361015,0.012684394605457783,0.07470535486936569,0.0010728370398283005,0.6600884795188904,-0.37709325551986694,-0.2542426884174347,-0.5129721760749817,-0.010350695811212063,-0.0694274827837944,-0.004425962455570698,-0.0009155272273346782,0.0,0.0,0.0
18,193,-1123.923828125,4.485103130340576,0.06988063454627991,0.00855601578950882,0.008540069684386253,0.07790684700012207,0.015532691031694412,1.6259915828704834,-0.29180869460105896,1.0817724466323853,0.1432323455810547,-0.2601514458656311,0.49443113803863525,0.9711298942565918,-0.0516662560403347,0.0,1.0,0.0
18,192,-1148.9237060546875,4.484982967376709,0.07046481966972351,0.008865250274538994,-0.010231134481728077,0.07539129257202148,0.030923448503017426,-1.8771204948425293,-0.2515554428100586,-0.9787615537643433,0.14844129979610443,0.35380974411964417,0.5042212605476379,0.9696545600891113,-0.0479736365377903,0.0,1.0,0.0
18,191,-1098.9237060546875,4.48525857925415,0.07101047039031982,0.00896734930574894,0.006073117256164551,0.07268538326025009,0.010209903120994568,1.6304250955581665,-0.2705909311771393,1.1351408958435059,0.1612379252910614,-0.2541022002696991,0.49286961555480957,0.9680290222167969,-0.0506896898150444,0.0,1.0,0.0
18,190,-1071.791259765625,4.498695373535156,-0.06755668669939041,0.7163277864456177,0.009613176807761192,0.04419238492846489,3.442436456680298,-0.016192905604839325,-0.2386718988418579,-0.32155734300613403,-2.525148868560791,0.050294067710638046,-0.0603332445025444,-0.34155726432800293,-0.0027770991437137127,0.0,0.949999988079071,0.0004914694000035524
18,189,-1073.804931640625,4.4983015060424805,0.09177379310131073,0.7651299834251404,-0.01538867224007845,0.03178423270583153,3.360205888748169,-0.03862045705318451,-0.12538805603981018,0.3616625666618347,0.7591661810874939,0.08181997388601303,-0.0428466796875,1.1685291528701782,-0.010223388671875,0.0,1.0,0.0
19,199,-1171.899658203125,4.49546480178833,-0.0777948722243309,-0.0012740243691951036,0.013067596592009068,0.08246840536594391,0.0007477705366909504,0.6617909073829651,-0.4094809293746948,-0.2689049541950226,-0.5264813303947449,-0.010415230877697468,-0.0759582445025444,-0.014739547856152058,-0.0008850098238326609,0.0,0.0,0.0
19,198,-1173.923828125,4.485103130340576,0.06988063454627991,0.00855601578950882,0.008540069684386253,0.07790684700012207,0.015532691031694412,1.6259915828704834,-0.29180869460105896,1.0817724466323853,0.1432323455810547,-0.2601514458656311,0.49443113803863525,0.9711298942565918,-0.0516662560403347,0.0,1.0,0.0
19,197,-1121.899169921875,4.495453834533691,-0.07494430243968964,-0.0012057838030159473,0.01226377859711647,0.06755732744932175,-0.0023383530788123608,0.6591334342956543,-0.34442171454429626,-0.23844082653522491,-0.4966142773628235,-0.010148544795811176,-0.0632018893957138,0.005723698064684868,-0.0009155272273346782,0.0,0.0,0.0
19,195,-1146.89892578125,4.495397090911865,-0.07431808114051819,-0.0011811014264822006,0.005225515458732843,0.06416696310043335,0.002468237653374672,-0.7038263082504272,-0.3390364348888397,-0.368798166513443,-0.4885501563549042,0.009310849942266941,-0.0595092736184597,0.010607283562421799,-0.0008239745511673391,0.0,0.0,0.0
19,194,-1096.8988037109375,4.495449542999268,-0.07372352480888367,-0.001165292109362781,0.011816857382655144,0.06097183749079704,0.0015809317119419575,0.6591342091560364,-0.3195125460624695,-0.22180479764938354,-0.4790199100971222,-0.010235543362796307,-0.0572814904153347,0.015395245514810085,-0.0009155274019576609,0.0,0.0,0.0
19,193,-1123.9237060546875,4.485426425933838,0.07200092077255249,0.009215795435011387,0.0036863803397864103,0.06764932721853256,0.07866565138101578,1.635572075843811,-0.2844959497451782,1.1874945163726807,0.17448516190052032,-0.24878013134002686,0.4902670979499817,0.9644773006439209,-0.049621570855379105,0.0,1.0,0.0
